Packet Number,SIV,FixType,Latitude,Longitude,Altitude,Year,Month,Day,Hour,Min,Sec,NNV,NEV,NDV,Battery,3v3 Supply,5v Supply,Radio Supply,Analog Internal,Analog External,Altimeter Temp,Digital Internal,Digital External,Pressure,Mag X,Mag Y,Mag Z,Accel A,Accel Y,Accel Z,Pitch,Roll,Yaw
0,0,0,0,0,0,2020,8,2,0,0,2,0,0,0,4.08,3.26,4.98,4.99,29.02,25.91,23.31,24.32,23.30,845.36,-10.72,14.10,31.35,0.73,0.15,10.71,3.88,0.82,-122.09
1,0,0,0,0,0,2020,8,2,0,0,3,0,0,0,4.09,3.26,4.98,4.99,29.11,26.42,23.33,24.37,23.28,845.33,-10.42,10.50,32.85,0.00,0.73,9.48,0.00,4.38,-142.62
2,0,0,0,0,0,2020,8,2,0,0,4,0,0,0,4.10,3.26,4.99,5.00,27.97,26.73,23.33,24.34,23.31,845.30,-6.97,15.60,31.35,0.34,-0.11,9.91,1.99,-0.66,-110.23
3,0,0,0,0,0,2020,8,2,0,0,5,0,0,0,4.09,3.26,4.98,4.99,28.91,26.45,23.32,24.32,23.28,845.46,-7.27,20.40,32.25,0.15,-0.69,8.99,0.97,-4.38,-106.49
4,0,0,0,0,0,2020,8,2,0,0,6,0,0,0,4.09,3.27,4.99,5.00,28.06,26.06,23.34,24.36,23.32,845.45,-6.67,19.35,31.95,0.99,0.08,9.41,6.03,0.46,-99.69
5,0,0,0,0,0,2020,8,2,0,0,7,0,0,0,4.09,3.26,4.98,4.99,29.02,26.62,23.35,24.38,23.33,845.45,-6.22,20.40,32.55,0.50,0.00,9.60,2.96,0.00,-102.51
6,0,0,0,0,0,2020,8,2,0,0,8,0,0,0,4.08,3.26,4.98,4.99,29.39,27.26,23.34,24.35,23.33,845.26,-6.82,19.80,32.70,0.54,-0.11,9.87,3.11,-0.67,-104.05
7,0,0,0,0,0,2020,8,2,0,0,9,0,0,0,4.09,3.26,4.98,4.99,29.04,26.07,23.35,24.46,23.34,845.56,-6.97,19.65,32.25,0.34,-0.27,9.91,1.99,-1.55,-105.96
8,0,0,0,0,0,2020,8,2,0,0,10,0,0,0,4.09,3.26,4.98,5.00,27.95,25.32,23.34,24.46,23.34,845.42,-6.22,19.80,32.25,-1.38,-1.34,7.15,-10.72,-10.41,-114.15
9,0,0,0,0,0,2020,8,2,0,0,11,0,0,0,4.07,3.26,4.98,4.99,29.25,26.26,23.36,24.52,23.38,845.35,-6.22,19.80,30.90,-0.11,0.27,9.06,-0.72,1.69,-109.32
10,0,0,0,0,0,2020,8,2,0,0,12,0,0,0,4.09,3.26,4.98,5.00,28.53,25.46,23.37,24.50,23.38,845.48,-7.12,20.40,30.90,0.65,0.11,9.48,3.92,0.69,-103.95
11,0,0,0,0,0,2020,8,2,0,0,13,0,0,0,4.09,3.26,4.98,4.99,28.49,26.46,23.35,24.55,23.39,845.34,-6.52,20.25,32.40,0.31,-0.15,9.52,1.84,-0.92,-104.80
12,0,0,0,0,0,2020,8,2,0,0,14,0,0,0,4.10,3.26,4.98,5.00,29.68,26.48,23.36,24.58,23.38,845.48,-5.92,21.00,33.00,1.11,-0.15,9.64,6.56,-0.90,-95.70
13,0,0,0,0,0,2020,8,2,0,0,15,0,0,0,4.10,3.26,4.98,5.00,29.63,26.32,23.34,24.56,23.41,845.41,-4.12,20.40,31.80,-0.50,-0.11,7.00,-4.06,-0.94,-106.86
14,0,0,0,0,0,2020,8,2,0,0,16,0,0,0,4.09,3.26,4.98,5.00,28.07,26.36,23.39,24.66,23.38,845.47,-6.37,21.60,32.55,0.61,-0.65,10.33,3.38,-3.60,-100.84
15,0,0,0,0,0,2020,8,2,0,0,17,0,0,0,4.08,3.26,4.98,5.00,29.31,26.42,23.41,24.67,23.37,845.44,-6.37,22.35,31.20,0.19,-0.34,9.33,1.17,-2.11,-103.75
16,0,0,0,0,0,2020,8,2,0,0,18,0,0,0,4.08,3.26,4.98,5.00,29.32,25.43,23.46,24.73,23.42,845.54,-6.22,22.80,34.05,0.38,-0.23,9.56,2.29,-1.37,-101.67
17,0,0,0,0,0,2020,8,2,0,0,19,0,0,0,4.09,3.26,4.98,5.00,30.03,27.23,23.87,24.75,23.48,845.50,-6.97,20.55,34.35,0.57,0.00,9.56,3.43,0.00,-103.41
18,0,0,0,0,0,2020,8,2,0,0,20,0,0,0,4.09,3.26,4.99,4.99,27.86,26.81,24.24,24.77,23.50,845.46,-7.42,21.45,34.35,0.54,0.00,9.60,3.19,0.00,-104.37
19,0,0,0,0,0,2020,8,2,0,0,21,0,0,0,4.09,3.25,4.98,4.99,29.37,27.41,24.42,24.83,23.48,845.45,-7.27,20.85,34.05,0.54,-0.04,9.75,3.14,-0.22,-104.42
20,0,0,0,0,0,2020,8,2,0,0,22,0,0,0,4.09,3.26,4.98,5.00,29.06,26.40,24.33,24.88,23.51,845.23,-9.22,18.45,32.40,0.92,0.88,8.41,6.19,5.93,-110.08
21,0,0,0,0,0,2020,8,2,0,0,23,0,0,0,4.09,3.26,4.98,4.99,29.21,27.17,24.10,24.94,23.51,845.33,-11.17,14.10,31.65,1.19,-0.69,9.94,6.78,-3.93,-114.72
22,0,0,0,0,0,2020,8,2,0,0,24,0,0,0,4.09,3.26,4.98,5.00,29.43,25.51,23.96,24.95,23.48,845.16,-9.82,14.25,32.40,-0.15,0.00,9.45,-0.93,0.00,-125.97
23,0,0,0,0,0,2020,8,2,0,0,25,0,0,0,4.08,3.25,4.98,4.99,30.52,25.72,23.88,24.96,23.50,845.47,-9.07,14.55,30.45,0.42,-0.04,9.56,2.52,-0.23,-117.77
24,0,0,0,0,0,2020,8,2,0,0,26,0,0,0,4.09,3.26,4.98,5.00,29.34,26.08,23.83,25.02,23.52,845.42,-6.07,7.80,36.00,0.88,0.65,8.61,5.82,4.30,-114.72
25,0,0,0,0,0,2020,8,2,0,0,27,0,0,0,4.10,3.26,4.98,5.00,28.94,27.15,23.79,25.03,23.51,845.29,3.68,-5.85,44.55,-2.18,4.32,9.26,-12.05,24.44,100.40
26,0,0,0,0,0,2020,8,2,0,0,28,0,0,0,4.09,3.26,4.98,5.00,28.95,27.03,23.78,25.07,23.52,845.28,5.78,-8.55,45.30,-1.76,4.67,8.30,-10.47,28.81,91.52
27,0,0,0,0,0,2020,8,2,0,0,29,0,0,0,4.09,3.26,4.98,4.99,29.93,26.40,23.78,25.13,23.54,845.45,5.48,-7.05,42.90,-3.17,3.94,8.22,-19.20,24.08,105.76
28,0,0,0,0,0,2020,8,2,0,0,30,0,0,0,4.09,3.26,4.98,5.00,29.05,26.58,23.76,25.15,23.52,845.37,1.58,-2.25,38.25,-0.88,3.44,10.44,-4.57,18.19,95.15
29,0,0,0,0,0,2020,8,2,0,0,31,0,0,0,4.09,3.26,4.98,4.99,28.95,26.17,23.75,25.15,23.57,845.53,1.13,-3.30,36.30,-0.92,2.45,11.05,-4.64,12.45,98.65
30,0,0,0,0,0,2020,8,2,0,0,32,0,0,0,4.09,3.26,4.98,5.00,29.64,26.41,23.76,25.20,23.58,845.44,2.18,-4.35,38.25,-1.07,2.29,9.75,-6.10,13.16,97.42
31,0,0,0,0,0,2020,8,2,0,0,33,0,0,0,4.09,3.25,4.98,4.99,29.63,26.85,23.74,25.24,23.59,845.38,3.23,-5.55,40.50,-1.42,3.21,8.15,-9.18,21.23,97.22
32,0,0,0,0,0,2020,8,2,0,0,34,0,0,0,4.10,3.26,4.98,5.00,29.95,25.60,23.72,25.25,23.58,845.11,3.23,-5.55,40.35,-1.76,3.29,8.61,-10.81,20.53,100.40
Packet Number,SIV,FixType,Latitude,Longitude,Altitude,Year,Month,Day,Hour,Min,Sec,NNV,NEV,NDV,Battery,3v3 Supply,5v Supply,Radio Supply,Analog Internal,Analog External,Altimeter Temp,Digital Internal,Digital External,Pressure,Mag X,Mag Y,Mag Z,Accel A,Accel Y,Accel Z,Pitch,Roll,Yaw
0,0,0,0,0,0,2020,8,2,0,0,2,0,0,0,3.98,3.26,4.98,5.00,30.27,27.07,24.61,25.11,23.83,845.27,-46.57,20.85,26.40,3.17,0.54,8.80,19.81,3.28,-150.75
1,0,0,0,0,0,2020,8,2,0,0,3,0,0,0,4.00,3.26,4.98,4.99,31.01,27.94,24.78,25.11,23.88,845.24,-44.47,20.25,25.65,2.60,0.61,9.29,15.60,3.63,-152.43
2,0,0,0,0,0,2020,8,2,0,0,4,0,0,0,3.98,3.26,4.98,5.00,29.92,27.24,24.90,25.17,23.98,845.10,-47.62,21.00,27.15,3.60,1.03,8.80,22.09,6.20,-151.55
3,0,0,0,0,0,2020,8,2,0,0,5,0,0,0,3.99,3.25,4.98,4.99,31.19,28.60,25.16,25.14,24.05,845.25,-45.67,24.00,25.50,3.63,0.50,8.99,21.98,2.94,-144.99
Packet Number,SIV,FixType,Latitude,Longitude,Altitude,Year,Month,Day,Hour,Min,Sec,NNV,NEV,NDV,Battery,3v3 Supply,5v Supply,Radio Supply,Analog Internal,Analog External,Altimeter Temp,Digital Internal,Digital External,Pressure,Mag X,Mag Y,Mag Z,Accel A,Accel Y,Accel Z,Pitch,Roll,Yaw
0,0,0,0,0,0,2020,8,2,0,0,2,0,0,0,4.06,3.26,4.99,4.99,29.38,29.90,27.35,27.54,27.41,1014.37,-40.42,49.35,53.40,6.12,-2.22,7.53,37.92,-12.87,-96.32
1,0,0,0,0,0,2020,8,2,0,0,3,0,0,0,4.06,3.26,4.98,4.99,29.89,29.60,27.37,27.56,27.45,1014.30,-40.12,48.75,51.00,6.16,-1.61,7.53,38.64,-9.37,-94.94
2,0,0,0,0,0,2020,8,2,0,0,4,0,0,0,4.06,3.26,4.99,5.00,29.25,29.88,27.37,27.52,27.43,1014.39,-39.97,50.40,51.75,6.23,-2.03,7.88,37.46,-11.41,-96.63
3,0,0,0,0,0,2020,8,2,0,0,5,0,0,0,4.06,3.26,4.98,4.99,30.31,30.59,27.37,27.52,27.46,1014.47,-37.42,49.95,51.75,5.97,-2.60,7.73,36.20,-14.92,-97.64
4,0,0,0,0,0,2020,8,2,0,0,6,0,0,0,4.03,3.26,4.99,5.00,29.42,29.92,27.42,27.60,27.45,1014.25,-37.87,50.70,51.45,5.70,-2.45,7.80,34.87,-14.22,-98.90
5,0,0,0,0,0,2020,8,2,0,0,7,0,0,0,4.05,3.26,4.98,5.00,30.24,30.98,27.39,27.56,27.48,1014.27,-38.17,49.65,52.05,5.58,-2.45,7.61,34.93,-14.54,-98.91
6,0,0,0,0,0,2020,8,2,0,0,8,0,0,0,4.00,3.26,4.99,4.99,30.06,30.18,27.38,27.61,27.49,1014.19,-37.87,51.30,53.10,5.97,-2.60,7.53,36.82,-15.14,-96.87
Packet Number,SIV,FixType,Latitude,Longitude,Altitude,Year,Month,Day,Hour,Min,Sec,NNV,NEV,NDV,Battery,3v3 Supply,5v Supply,Radio Supply,Analog Internal,Analog External,Altimeter Temp,Digital Internal,Digital External,Pressure,Mag X,Mag Y,Mag Z,Accel A,Accel Y,Accel Z,Pitch,Roll,Yaw
0,0,0,0,0,0,2020,8,2,0,0,2,0,0,0,3.98,3.26,4.98,4.99,24.82,25.52,22.75,22.69,22.86,1009.39,-52.57,44.70,47.25,1.19,-4.63,8.38,7.06,-28.68,-128.77
1,0,0,0,0,0,2020,8,2,0,0,3,0,0,0,4.01,3.26,4.98,4.99,25.83,25.71,22.77,22.70,22.87,1009.72,-52.57,43.65,46.80,1.22,-4.70,8.34,7.29,-29.17,-129.18
2,0,0,0,0,0,2020,8,2,0,0,4,0,0,0,3.91,3.27,4.98,4.99,24.69,24.95,22.77,22.70,22.88,1009.55,-44.32,26.85,34.95,-0.08,-0.31,7.96,-0.55,-2.20,-147.75
3,0,0,0,0,0,2020,8,2,0,0,5,0,0,0,4.01,3.26,4.98,4.99,25.62,26.32,22.79,22.67,22.89,1009.67,-26.77,-3.60,32.85,-3.98,4.21,7.88,-24.01,25.49,154.15
4,0,0,0,0,0,2020,8,2,0,0,6,0,0,0,3.95,3.26,4.98,4.99,25.28,25.22,22.80,22.73,22.87,1009.76,-28.12,-2.55,32.55,-4.09,3.60,8.76,-23.38,20.40,159.91
5,0,0,0,0,0,2020,8,2,0,0,7,0,0,0,4.01,3.26,4.98,4.99,25.75,25.16,22.77,22.76,22.87,1009.64,-31.72,14.85,30.60,-3.21,0.04,6.88,-25.02,0.29,-160.59
6,0,0,0,0,0,2020,8,2,0,0,8,0,0,0,3.90,3.26,4.98,4.99,25.77,25.99,22.78,22.83,22.92,1009.70,-20.02,0.45,30.90,-5.39,0.73,8.64,-31.87,4.08,176.99
7,0,0,0,0,0,2020,8,2,0,0,9,0,0,0,3.99,3.26,4.98,4.99,26.34,25.83,22.81,22.80,22.91,1009.73,-17.17,3.00,30.90,-4.51,-0.69,7.99,-29.36,-4.29,-169.96
8,0,0,0,0,0,2020,8,2,0,0,10,0,0,0,3.98,3.26,4.99,4.99,25.75,26.02,22.80,22.88,22.92,1009.72,-16.57,-0.90,32.25,-4.51,0.31,8.15,-28.97,1.88,176.28
9,0,0,0,0,0,2020,8,2,0,0,11,0,0,0,4.03,3.26,4.98,4.99,26.09,26.55,22.80,22.92,22.88,1009.74,-21.82,-5.55,33.90,-4.17,2.29,8.64,-24.99,13.45,158.17
Packet Number,SIV,FixType,Latitude,Longitude,Altitude,Year,Month,Day,Hour,Min,Sec,NNV,NEV,NDV,Battery,3v3 Supply,5v Supply,Radio Supply,Analog Internal,Analog External,Altimeter Temp,Digital Internal,Digital External,Pressure,Mag X,Mag Y,Mag Z,Accel A,Accel Y,Accel Z,Pitch,Roll,Yaw
0,0,0,0,0,0,2020,8,2,0,0,2,0,0,0,3.99,3.27,4.98,4.99,26.12,25.69,23.35,23.50,23.42,1009.33,-20.02,-41.85,62.55,-0.08,9.60,1.45,-0.45,81.38,106.18
1,0,0,0,0,0,2020,8,2,0,0,3,0,0,0,4.02,3.26,4.98,4.99,26.14,26.50,23.36,23.52,23.46,1009.40,-19.57,-42.00,64.80,-1.61,9.52,1.57,-9.45,76.74,101.68
2,0,0,0,0,0,2020,8,2,0,0,4,0,0,0,4.01,3.27,4.98,4.99,26.42,26.09,23.35,23.52,23.45,1009.56,-26.77,-40.65,64.80,3.75,6.85,3.14,26.46,54.48,106.02
3,0,0,0,0,0,2020,8,2,0,0,5,0,0,0,4.02,3.26,4.98,4.99,26.55,26.16,23.37,23.48,23.47,1009.27,-24.22,-40.20,64.80,-1.30,8.57,1.49,-8.50,76.99,105.72
4,0,0,0,0,0,2020,8,2,0,0,6,0,0,0,4.02,3.26,4.98,4.95,24.84,25.95,23.36,23.53,23.48,1009.48,-36.82,-38.70,65.70,0.96,8.76,-0.69,6.21,82.34,119.53
5,0,0,0,0,0,2020,8,2,0,0,7,0,0,0,4.02,3.26,4.98,4.99,26.98,26.24,23.36,23.59,23.48,1009.34,-31.42,-40.35,62.25,1.19,9.56,1.57,6.98,78.38,116.51
6,0,0,0,0,0,2020,8,2,0,0,8,0,0,0,4.01,3.26,4.98,4.94,25.48,25.94,23.37,23.62,23.45,1009.57,-31.12,-39.60,64.35,1.15,9.56,1.38,6.77,79.38,115.80
7,0,0,0,0,0,2020,8,2,0,0,9,0,0,0,4.02,3.26,4.98,4.99,27.37,26.43,23.38,23.63,23.45,1009.39,-31.27,-39.60,63.45,1.19,9.68,1.38,6.92,79.36,116.23
8,0,0,0,0,0,2020,8,2,0,0,10,0,0,0,4.02,3.26,4.98,4.99,25.56,26.40,23.38,23.66,23.47,1009.38,-31.12,-40.35,63.30,1.30,9.60,1.42,7.63,78.68,116.21
9,0,0,0,0,0,2020,8,2,0,0,11,0,0,0,4.01,3.26,4.98,4.98,26.75,26.85,23.37,23.71,23.48,1009.50,-30.22,-40.50,63.75,1.22,9.60,1.38,7.19,79.14,115.47
10,0,0,0,0,0,2020,8,2,0,0,12,0,0,0,4.01,3.26,4.99,4.99,26.59,26.24,23.38,23.73,23.48,1009.65,-30.82,-38.85,62.10,1.19,9.64,1.42,6.94,79.16,116.32
11,0,0,0,0,0,2020,8,2,0,0,13,0,0,0,3.85,3.26,4.98,4.99,26.75,26.78,23.38,23.78,23.50,1009.55,-31.27,-36.75,63.15,1.15,9.60,1.38,6.75,79.42,116.25
12,0,0,0,0,0,2020,8,2,0,0,14,0,0,0,4.00,3.26,4.98,4.99,27.02,26.30,23.38,23.83,23.51,1009.49,-30.37,-39.30,62.55,1.19,9.60,1.42,6.97,79.11,115.88
13,0,0,0,0,0,2020,8,2,0,0,15,0,0,0,3.91,3.26,4.98,4.99,27.08,27.15,23.40,23.84,23.50,1009.59,-30.52,-40.35,63.30,1.22,9.60,1.68,7.16,77.77,115.46
14,0,0,0,0,0,2020,8,2,0,0,16,0,0,0,4.00,3.26,4.98,4.99,26.53,26.20,23.38,23.88,23.47,1009.30,-29.77,-39.45,62.25,1.19,9.56,1.38,7.00,79.24,115.62
15,0,0,0,0,0,2020,8,2,0,0,17,0,0,0,4.01,3.26,4.98,4.99,27.30,27.68,23.40,23.90,23.49,1009.50,-31.12,-39.75,62.70,1.15,9.64,1.42,6.72,79.30,116.31
16,0,0,0,0,0,2020,8,2,0,0,18,0,0,0,4.02,3.26,4.99,4.99,26.46,26.04,23.39,23.97,23.49,1009.59,-30.67,-40.20,63.45,1.15,9.64,1.26,6.73,79.96,115.94
17,0,0,0,0,0,2020,8,2,0,0,19,0,0,0,3.96,3.26,4.98,4.99,27.40,26.49,23.39,23.99,23.52,1009.62,-30.52,-39.75,62.85,1.19,9.60,1.38,6.97,79.28,115.93
18,0,0,0,0,0,2020,8,2,0,0,20,0,0,0,4.01,3.27,4.98,4.99,26.28,26.31,23.39,24.07,23.50,1009.33,-29.92,-39.60,63.00,1.26,9.56,1.34,7.45,79.11,115.56
19,0,0,0,0,0,2020,8,2,0,0,21,0,0,0,4.02,3.26,4.98,4.99,27.08,26.58,23.41,24.11,23.49,1009.58,-30.67,-39.45,63.30,1.22,9.56,1.34,7.22,79.26,115.93
20,0,0,0,0,0,2020,8,2,0,0,22,0,0,0,4.01,3.27,4.98,4.99,26.67,26.76,23.38,24.13,23.49,1009.41,-30.82,-39.75,63.60,1.22,9.56,1.45,7.21,78.76,115.81
21,0,0,0,0,0,2020,8,2,0,0,23,0,0,0,4.03,3.25,4.98,4.99,27.24,25.67,23.41,24.19,23.49,1009.50,-29.77,-39.00,62.70,1.19,9.64,1.38,6.94,79.32,115.46
22,0,0,0,0,0,2020,8,2,0,0,24,0,0,0,4.01,3.27,4.98,4.99,26.66,26.13,23.41,24.27,23.53,1009.48,-29.62,-39.30,61.80,1.22,9.56,1.34,7.22,79.26,115.73
23,0,0,0,0,0,2020,8,2,0,0,25,0,0,0,4.02,3.26,4.98,4.94,28.26,26.18,23.42,24.28,23.52,1009.35,-30.52,-40.50,63.75,1.22,9.60,1.34,7.20,79.30,115.71
24,0,0,0,0,0,2020,8,2,0,0,26,0,0,0,4.01,3.26,4.98,4.99,27.03,25.27,23.42,24.26,23.49,1009.55,-30.82,-40.20,63.75,1.19,9.64,1.38,6.94,79.32,115.84
25,0,0,0,0,0,2020,8,2,0,0,27,0,0,0,4.02,3.26,4.98,4.96,28.77,26.85,23.42,24.35,23.48,1009.35,-29.32,-39.30,62.25,1.15,9.56,1.38,6.77,79.38,115.28
26,0,0,0,0,0,2020,8,2,0,0,28,0,0,0,4.01,3.27,4.99,4.99,27.35,27.07,23.43,24.42,23.49,1009.46,-30.37,-39.15,62.70,1.19,9.60,1.34,6.97,79.45,115.91
27,0,0,0,0,0,2020,8,2,0,0,29,0,0,0,4.02,3.26,4.98,4.98,28.66,26.28,23.42,24.47,23.52,1009.42,-30.22,-39.30,62.70,1.07,9.60,1.34,6.30,79.88,115.73
28,0,0,0,0,0,2020,8,2,0,0,30,0,0,0,4.02,3.27,4.98,4.99,27.25,25.68,23.44,24.47,23.51,1009.45,-30.07,-37.05,63.15,1.19,9.64,1.42,6.94,79.16,115.43
29,0,0,0,0,0,2020,8,2,0,0,31,0,0,0,4.02,3.26,4.98,4.96,28.07,26.62,23.45,24.48,23.55,1009.34,-30.52,-40.35,63.60,1.22,9.60,1.42,7.19,78.97,115.67
30,0,0,0,0,0,2020,8,2,0,0,32,0,0,0,3.90,3.26,4.98,4.99,28.02,26.47,23.45,24.50,23.55,1009.26,-31.12,-36.15,62.40,1.19,9.64,1.22,6.96,79.97,116.58
31,0,0,0,0,0,2020,8,2,0,0,33,0,0,0,4.02,3.26,4.98,4.99,29.05,26.65,23.45,24.55,23.53,1009.29,-30.82,-40.20,63.00,1.19,9.60,1.42,6.97,79.11,116.04
32,0,0,0,0,0,2020,8,2,0,0,34,0,0,0,3.93,3.26,4.98,4.99,27.82,25.90,23.45,24.59,23.51,1009.43,-30.67,-39.60,62.85,1.22,9.56,1.64,7.19,77.90,115.74
33,0,0,0,0,0,2020,8,2,0,0,35,0,0,0,4.02,3.26,4.98,4.99,28.81,26.45,23.43,24.60,23.55,1009.33,-30.82,-39.60,63.30,1.19,9.64,1.42,6.94,79.16,115.93
34,0,0,0,0,0,2020,8,2,0,0,36,0,0,0,4.01,3.26,4.98,4.99,28.26,26.46,23.45,24.69,23.54,1009.46,-30.37,-39.60,61.95,1.15,9.64,1.38,6.72,79.47,116.11
35,0,0,0,0,0,2020,8,2,0,0,37,0,0,0,4.02,3.26,4.98,4.99,27.85,26.66,23.46,24.72,23.52,1009.46,-31.42,-39.15,63.00,1.19,9.56,1.80,6.95,77.31,115.98
36,0,0,0,0,0,2020,8,2,0,0,38,0,0,0,3.95,3.26,4.98,4.99,28.24,26.07,23.47,24.75,23.53,1009.39,-30.97,-40.50,63.45,1.26,9.64,1.45,7.38,78.71,116.00
37,0,0,0,0,0,2020,8,2,0,0,39,0,0,0,4.02,3.26,4.98,4.99,27.87,27.60,23.47,24.78,23.54,1009.54,-30.97,-39.75,63.30,1.19,9.56,1.42,6.99,79.07,116.03
38,0,0,0,0,0,2020,8,2,0,0,40,0,0,0,4.01,3.27,4.98,4.99,28.52,26.76,23.47,24.80,23.58,1009.49,-30.07,-39.90,63.30,1.19,9.64,1.38,6.94,79.32,115.48
39,0,0,0,0,0,2020,8,2,0,0,41,0,0,0,4.02,3.25,4.98,4.99,28.97,27.44,23.48,24.85,23.56,1009.61,-30.22,-39.75,63.15,1.19,9.64,1.38,6.94,79.32,115.63
40,0,0,0,0,0,2020,8,2,0,0,42,0,0,0,4.00,3.26,4.99,4.99,28.79,26.48,23.47,24.91,23.56,1009.44,-30.67,-39.75,62.55,1.19,9.56,1.34,7.00,79.41,116.17
41,0,0,0,0,0,2020,8,2,0,0,43,0,0,0,4.02,3.26,4.98,4.99,29.40,26.31,23.48,24.92,23.57,1009.41,-30.37,-40.20,63.30,1.22,9.60,1.30,7.20,79.46,115.80
42,0,0,0,0,0,2020,8,2,0,0,44,0,0,0,4.01,3.26,4.99,4.95,29.33,25.95,23.52,24.95,23.57,1009.38,-31.12,-39.90,63.00,1.26,9.56,1.42,7.44,78.78,116.27
43,0,0,0,0,0,2020,8,2,0,0,45,0,0,0,4.02,3.26,4.98,4.99,29.78,26.60,23.52,25.02,23.55,1009.40,-29.77,-39.60,63.15,1.19,9.52,1.22,7.04,79.86,115.49
44,0,0,0,0,0,2020,8,2,0,0,46,0,0,0,4.01,3.26,4.98,4.92,28.29,26.22,23.51,25.02,23.55,1009.59,-29.92,-40.20,63.00,1.19,9.52,1.42,7.02,79.03,115.44
45,0,0,0,0,0,2020,8,2,0,0,47,0,0,0,4.03,3.26,4.98,4.99,29.73,26.78,23.51,25.09,23.56,1009.46,-30.67,-40.05,63.30,1.15,9.60,1.38,6.75,79.42,115.86
46,0,0,0,0,0,2020,8,2,0,0,48,0,0,0,4.02,3.26,4.99,4.99,29.42,25.10,23.51,25.13,23.53,1009.40,-30.07,-40.35,62.55,1.15,9.71,1.22,6.68,80.20,115.89
47,0,0,0,0,0,2020,8,2,0,0,49,0,0,0,4.02,3.26,4.98,4.99,29.41,26.60,23.51,25.13,23.57,1009.37,-30.37,-40.20,62.55,1.22,9.60,1.42,7.19,78.97,115.92
48,0,0,0,0,0,2020,8,2,0,0,50,0,0,0,4.01,3.27,4.99,4.98,28.66,26.94,23.52,25.23,23.57,1009.55,-30.52,-40.35,62.85,1.19,9.60,1.34,6.97,79.45,115.98
49,0,0,0,0,0,2020,8,2,0,0,51,0,0,0,3.95,3.26,4.98,4.99,29.88,26.76,23.54,25.20,23.58,1009.44,-29.92,-40.95,63.00,1.15,9.64,1.30,6.73,79.80,115.56
50,0,0,0,0,0,2020,8,2,0,0,52,0,0,0,4.02,3.26,4.98,4.99,27.95,26.39,23.53,25.29,23.58,1009.38,-30.07,-39.60,62.85,1.15,9.64,1.34,6.73,79.63,115.64
51,0,0,0,0,0,2020,8,2,0,0,53,0,0,0,3.93,3.26,4.98,4.99,30.42,26.64,23.53,25.28,23.59,1009.42,-30.82,-39.60,62.70,1.19,9.60,1.57,6.95,78.43,115.95
52,0,0,0,0,0,2020,8,2,0,0,54,0,0,0,4.01,3.26,4.99,4.99,29.09,26.47,23.55,25.33,23.59,1009.34,-30.07,-40.50,62.85,1.15,9.60,1.34,6.75,79.59,115.66
53,0,0,0,0,0,2020,8,2,0,0,55,0,0,0,3.95,3.26,4.98,4.99,30.16,26.88,23.56,25.38,23.62,1009.36,-30.07,-39.45,62.70,1.19,9.56,1.38,7.00,79.24,115.67
54,0,0,0,0,0,2020,8,2,0,0,56,0,0,0,4.01,3.26,4.98,4.99,29.19,25.96,23.58,25.43,23.57,1009.47,-30.22,-40.20,62.55,1.34,9.52,1.45,7.91,78.28,115.83
55,0,0,0,0,0,2020,8,2,0,0,57,0,0,0,3.89,3.26,4.98,4.99,29.88,26.68,23.55,25.45,23.59,1009.42,-30.97,-39.75,64.20,1.22,9.64,1.38,7.16,79.18,115.80
56,0,0,0,0,0,2020,8,2,0,0,58,0,0,0,4.01,3.26,4.98,4.99,30.28,26.39,23.58,25.48,23.62,1009.48,-30.07,-40.95,62.70,1.26,9.64,1.34,7.39,79.19,115.80
57,0,0,0,0,0,2020,8,2,0,0,59,0,0,0,4.02,3.26,4.99,4.99,30.40,27.27,23.58,25.52,23.63,1009.34,-29.92,-40.35,62.70,1.26,9.56,1.57,7.42,78.11,115.41
58,0,0,0,0,0,2020,8,2,0,1,0,0,0,0,4.02,3.26,4.98,4.99,29.61,27.10,23.60,25.49,23.59,1009.70,-30.07,-38.85,63.30,1.19,9.56,1.34,7.00,79.41,115.50
59,0,0,0,0,0,2020,8,2,0,1,1,0,0,0,4.03,3.26,4.98,4.99,29.87,26.90,23.58,25.57,23.63,1009.47,-29.02,-39.75,63.45,1.19,9.60,1.42,6.97,79.11,114.68
60,0,0,0,0,0,2020,8,2,0,1,2,0,0,0,4.00,3.26,4.98,4.99,29.76,26.81,23.60,25.61,23.63,1009.32,-30.07,-39.45,62.70,1.19,9.64,1.53,6.93,78.64,115.50
61,0,0,0,0,0,2020,8,2,0,1,3,0,0,0,4.01,3.25,4.98,4.95,30.80,27.13,23.61,25.60,23.64,1009.54,-30.37,-39.90,62.10,1.19,9.60,1.38,6.97,79.28,116.08
62,0,0,0,0,0,2020,8,2,0,1,4,0,0,0,4.02,3.26,4.98,4.99,29.96,27.49,23.61,25.67,23.62,1009.49,-30.22,-39.75,63.15,1.15,9.56,1.34,6.78,79.55,115.64
63,0,0,0,0,0,2020,8,2,0,1,5,0,0,0,4.02,3.26,4.98,4.96,30.91,26.90,23.61,25.70,23.61,1009.18,-30.22,-39.90,62.25,1.15,9.56,1.42,6.77,79.21,115.86
64,0,0,0,0,0,2020,8,2,0,1,6,0,0,0,4.01,3.26,4.98,4.99,29.96,26.90,23.60,25.78,23.64,1009.29,-30.07,-39.75,62.10,1.22,9.64,1.38,7.16,79.18,115.91
65,0,0,0,0,0,2020,8,2,0,1,7,0,0,0,4.02,3.25,4.98,4.95,30.60,26.59,23.63,25.78,23.64,1009.37,-30.82,-40.05,63.00,1.22,9.71,1.64,7.08,78.08,115.81
66,0,0,0,0,0,2020,8,2,0,1,8,0,0,0,4.02,3.26,4.98,4.99,29.64,25.99,23.63,25.79,23.65,1009.33,-30.37,-37.05,61.95,1.22,9.56,1.38,7.22,79.09,116.10
67,0,0,0,0,0,2020,8,2,0,1,9,0,0,0,4.02,3.26,4.98,4.94,31.08,27.48,23.64,25.80,23.65,1009.40,-30.67,-40.20,63.30,1.22,9.56,1.42,7.22,78.93,115.86
68,0,0,0,0,0,2020,8,2,0,1,10,0,0,0,3.96,3.26,4.99,4.99,30.77,27.23,23.65,25.88,23.63,1009.23,-30.37,-39.30,62.70,1.19,9.68,1.26,6.93,79.85,116.00
69,0,0,0,0,0,2020,8,2,0,1,11,0,0,0,4.02,3.26,4.98,4.98,31.00,26.69,23.64,25.92,23.66,1009.23,-30.67,-40.20,62.25,1.15,9.56,1.42,6.77,79.21,116.16
70,0,0,0,0,0,2020,8,2,0,1,12,0,0,0,4.01,3.26,4.98,4.99,31.41,27.87,23.67,25.93,23.62,1009.46,-30.37,-40.05,63.60,1.26,9.56,1.34,7.45,79.11,115.67
71,0,0,0,0,0,2020,8,2,0,1,13,0,0,0,4.02,3.26,4.98,4.99,30.94,26.66,23.67,25.93,23.66,1009.34,-31.42,-40.20,62.55,1.19,9.60,1.42,6.97,79.11,116.59
72,0,0,0,0,0,2020,8,2,0,1,14,0,0,0,3.87,3.26,4.98,4.99,30.83,26.64,23.68,25.95,23.66,1009.24,-30.82,-36.90,62.55,1.19,9.56,1.30,7.00,79.57,116.25
73,0,0,0,0,0,2020,8,2,0,1,15,0,0,0,4.02,3.25,4.98,4.99,30.81,27.24,23.67,26.01,23.66,1009.16,-31.72,-39.15,62.70,1.22,9.64,1.22,7.18,79.82,116.95
74,0,0,0,0,0,2020,8,2,0,1,16,0,0,0,3.82,3.26,4.98,4.99,30.00,25.60,23.69,25.98,23.66,1009.42,-29.77,-39.90,62.10,1.22,9.64,1.34,7.17,79.34,115.75
75,0,0,0,0,0,2020,8,2,0,1,17,0,0,0,4.02,3.26,4.98,4.99,31.04,27.03,23.69,26.09,23.66,1009.52,-30.52,-40.65,62.85,1.22,9.60,1.38,7.19,79.14,115.97
76,0,0,0,0,0,2020,8,2,0,1,18,0,0,0,4.02,3.26,4.98,4.99,31.35,26.74,23.71,26.09,23.67,1009.35,-30.22,-39.75,63.45,1.19,9.60,1.07,7.00,80.55,115.86
77,0,0,0,0,0,2020,8,2,0,1,19,0,0,0,4.02,3.26,4.98,4.99,31.40,27.16,23.72,26.12,23.70,1009.52,-29.17,-40.80,63.00,1.19,9.56,1.38,7.00,79.24,114.99
78,0,0,0,0,0,2020,8,2,0,1,20,0,0,0,3.99,3.26,4.99,4.99,30.55,26.54,23.72,26.15,23.66,1009.52,-29.92,-39.90,61.65,1.22,9.64,1.38,7.16,79.18,115.96
79,0,0,0,0,0,2020,8,2,0,1,21,0,0,0,4.02,3.26,4.98,4.99,31.52,26.81,23.72,26.21,23.73,1009.46,-31.12,-40.50,62.85,1.15,9.56,1.57,6.75,78.51,116.08
80,0,0,0,0,0,2020,8,2,0,1,22,0,0,0,4.02,3.26,4.99,4.98,30.92,26.53,23.73,26.28,23.67,1009.35,-29.62,-40.35,62.55,1.19,9.60,1.38,6.97,79.28,115.44
81,0,0,0,0,0,2020,8,2,0,1,23,0,0,0,4.01,3.26,4.98,4.99,32.01,27.09,23.74,26.28,23.69,1009.37,-30.22,-40.35,62.55,1.15,9.60,1.34,6.75,79.59,115.86
82,0,0,0,0,0,2020,8,2,0,1,24,0,0,0,4.02,3.26,4.98,4.99,30.81,27.09,23.75,26.27,23.67,1009.48,-30.97,-40.35,62.10,1.11,9.64,1.34,6.50,79.78,116.49
83,0,0,0,0,0,2020,8,2,0,1,25,0,0,0,4.02,3.26,4.98,4.99,32.02,27.20,23.75,26.34,23.67,1009.33,-30.97,-39.75,63.30,1.19,9.60,1.42,6.97,79.11,116.03
84,0,0,0,0,0,2020,8,2,0,1,26,0,0,0,4.02,3.26,4.98,4.95,31.36,26.80,23.77,26.33,23.72,1009.35,-29.62,-40.65,62.55,1.15,9.60,1.38,6.75,79.42,115.41
85,0,0,0,0,0,2020,8,2,0,1,27,0,0,0,4.02,3.26,4.98,4.99,31.63,27.12,23.78,26.43,23.74,1009.48,-30.07,-40.20,62.85,1.15,9.60,1.38,6.75,79.42,115.61
86,0,0,0,0,0,2020,8,2,0,1,28,0,0,0,4.01,3.26,4.98,4.93,31.24,26.86,23.77,26.41,23.76,1009.36,-30.67,-39.75,62.25,1.19,9.64,1.42,6.94,79.16,116.19
87,0,0,0,0,0,2020,8,2,0,1,29,0,0,0,4.02,3.25,4.98,4.99,31.78,26.88,23.79,26.40,23.74,1009.37,-29.92,-40.65,61.95,1.15,9.60,1.53,6.73,78.73,115.64
88,0,0,0,0,0,2020,8,2,0,1,30,0,0,0,4.02,3.26,4.99,4.99,30.78,26.33,23.80,26.48,23.73,1009.23,-30.67,-39.00,62.70,1.19,9.56,1.38,7.00,79.24,116.06
89,0,0,0,0,0,2020,8,2,0,1,31,0,0,0,4.01,3.26,4.98,4.99,31.84,27.23,23.80,26.50,23.73,1009.56,-30.82,-36.60,63.30,1.22,9.60,1.38,7.19,79.14,115.93
90,0,0,0,0,0,2020,8,2,0,1,32,0,0,0,4.02,3.26,4.99,4.98,31.89,26.09,23.83,26.48,23.82,1009.50,-31.12,-40.20,62.25,1.22,9.64,1.42,7.16,79.01,116.52
91,0,0,0,0,0,2020,8,2,0,1,33,0,0,0,3.88,3.26,4.98,4.99,32.05,27.14,23.83,26.52,23.77,1009.33,-30.52,-39.60,63.45,1.19,9.60,1.42,6.97,79.11,115.68
92,0,0,0,0,0,2020,8,2,0,1,34,0,0,0,4.02,3.26,4.98,4.99,31.65,26.12,23.83,26.59,23.76,1009.60,-29.92,-39.45,62.25,1.19,9.56,1.34,7.00,79.41,115.76
93,0,0,0,0,0,2020,8,2,0,1,35,0,0,0,3.91,3.26,4.98,4.99,31.89,27.16,23.83,26.59,23.76,1009.42,-32.02,-39.45,62.85,1.11,9.48,1.49,6.59,78.91,116.72
94,0,0,0,0,0,2020,8,2,0,1,36,0,0,0,4.02,3.26,4.98,4.99,31.89,26.51,23.84,26.61,23.80,1009.39,-30.97,-39.90,62.25,1.19,9.64,1.38,6.94,79.32,116.44
95,0,0,0,0,0,2020,8,2,0,1,37,0,0,0,3.96,3.26,4.98,4.99,32.21,26.70,23.84,26.65,23.78,1009.56,-30.22,-40.05,63.30,1.11,9.60,1.45,6.52,79.22,115.44
96,0,0,0,0,0,2020,8,2,0,1,38,0,0,0,4.01,3.26,4.98,4.99,31.71,27.07,23.85,26.66,23.75,1009.40,-31.27,-39.60,63.30,1.26,9.60,1.34,7.42,79.15,116.35
97,0,0,0,0,0,2020,8,2,0,1,39,0,0,0,3.93,3.26,4.98,4.98,31.95,27.21,23.86,26.71,23.82,1009.22,-30.07,-40.20,63.45,1.15,9.68,1.34,6.70,79.67,115.46
98,0,0,0,0,0,2020,8,2,0,1,40,0,0,0,4.01,3.26,4.98,4.99,32.27,26.92,23.87,26.74,23.78,1009.25,-31.12,-40.05,62.70,1.22,9.56,1.57,7.20,78.25,116.18
99,0,0,0,0,0,2020,8,2,0,1,41,0,0,0,4.02,3.25,4.98,4.99,32.55,27.17,23.86,26.72,23.79,1009.45,-30.67,-40.50,62.55,1.15,9.60,1.11,6.77,80.56,116.42
100,0,0,0,0,0,2020,8,2,0,1,42,0,0,0,4.02,3.26,4.99,4.99,32.27,25.95,23.88,26.77,23.80,1009.36,-30.22,-39.45,62.55,1.11,9.56,1.38,6.55,79.52,115.77
101,0,0,0,0,0,2020,8,2,0,1,43,0,0,0,4.02,3.26,4.98,4.99,32.14,26.99,23.90,26.84,23.80,1009.51,-30.07,-39.90,62.85,1.11,9.64,1.42,6.50,79.43,115.53
102,0,0,0,0,0,2020,8,2,0,1,44,0,0,0,4.01,3.26,4.98,4.99,32.46,26.09,23.91,26.84,23.83,1009.33,-30.22,-39.00,62.55,1.22,9.52,1.45,7.24,78.72,115.74
103,0,0,0,0,0,2020,8,2,0,1,45,0,0,0,4.02,3.26,4.98,4.94,32.34,26.99,23.90,26.83,23.79,1009.33,-31.27,-40.05,63.15,1.19,9.64,1.45,6.94,78.99,116.24
104,0,0,0,0,0,2020,8,2,0,1,46,0,0,0,4.01,3.26,4.98,4.99,32.80,26.59,23.93,26.88,23.84,1009.49,-30.67,-40.05,63.45,1.22,9.64,1.30,7.17,79.50,115.94
105,0,0,0,0,0,2020,8,2,0,1,47,0,0,0,4.02,3.26,4.98,4.96,32.62,27.09,23.92,26.91,23.81,1009.23,-29.92,-39.60,62.25,1.15,9.52,1.34,6.80,79.51,115.74
106,0,0,0,0,0,2020,8,2,0,1,48,0,0,0,4.01,3.26,4.98,4.99,31.75,25.82,23.94,26.90,23.81,1009.36,-32.17,-40.65,61.65,1.19,9.60,1.42,6.97,79.11,117.40
107,0,0,0,0,0,2020,8,2,0,1,49,0,0,0,4.02,3.25,4.98,4.96,32.64,27.37,23.93,26.96,23.86,1009.37,-30.52,-40.65,62.40,1.22,9.64,1.34,7.17,79.34,116.17
108,0,0,0,0,0,2020,8,2,0,1,50,0,0,0,4.02,3.26,4.99,4.99,31.28,25.61,23.95,26.98,23.83,1009.39,-30.67,-40.50,63.75,1.26,9.60,1.42,7.41,78.83,115.75
109,0,0,0,0,0,2020,8,2,0,1,51,0,0,0,4.02,3.26,4.98,4.94,32.41,27.21,23.95,27.02,23.87,1009.26,-30.97,-40.65,62.85,1.15,9.56,1.42,6.77,79.21,116.17
110,0,0,0,0,0,2020,8,2,0,1,52,0,0,0,3.98,3.26,4.99,4.99,32.39,26.71,23.96,26.95,23.83,1009.45,-30.37,-40.20,61.50,1.19,9.60,1.38,6.97,79.28,116.29
111,0,0,0,0,0,2020,8,2,0,1,53,0,0,0,4.02,3.25,4.98,4.99,32.80,27.26,23.98,27.01,23.88,1009.38,-29.77,-40.05,63.00,1.22,9.56,1.38,7.22,79.09,115.40
112,0,0,0,0,0,2020,8,2,0,1,54,0,0,0,4.01,3.26,4.99,4.99,33.21,26.81,23.98,27.08,23.85,1009.61,-30.67,-40.65,62.85,1.11,9.60,1.53,6.51,78.86,115.81
113,0,0,0,0,0,2020,8,2,0,1,55,0,0,0,4.01,3.25,4.98,4.98,32.95,26.93,23.98,27.05,23.86,1009.43,-30.82,-38.70,63.30,1.11,9.52,1.38,6.58,79.48,115.90
114,0,0,0,0,0,2020,8,2,0,1,56,0,0,0,3.89,3.26,4.98,4.99,32.92,26.74,24.00,27.09,23.88,1009.41,-30.52,-36.75,63.00,1.19,9.60,1.38,6.97,79.28,115.82
115,0,0,0,0,0,2020,8,2,0,1,57,0,0,0,4.02,3.26,4.98,4.99,32.49,27.04,24.01,27.09,23.85,1009.47,-30.67,-40.20,63.45,1.22,9.64,1.42,7.16,79.01,115.82
116,0,0,0,0,0,2020,8,2,0,1,58,0,0,0,3.82,3.26,4.98,4.99,32.34,26.59,24.02,27.20,23.94,1009.44,-30.37,-39.60,61.95,1.22,9.60,1.42,7.19,78.97,116.11
117,0,0,0,0,0,2020,8,2,0,1,59,0,0,0,4.02,3.25,4.98,4.99,32.75,27.27,24.01,27.18,23.92,1009.28,-29.47,-40.35,62.70,1.34,9.52,1.38,7.92,78.60,115.37
118,0,0,0,0,0,2020,8,2,0,2,0,0,0,0,4.01,3.26,4.98,4.99,32.99,25.93,24.04,27.21,23.91,1009.39,-31.27,-39.75,62.40,1.22,9.52,1.38,7.25,79.05,116.59
119,0,0,0,0,0,2020,8,2,0,2,1,0,0,0,4.02,3.25,4.98,4.99,32.89,27.40,24.04,27.23,23.91,1009.46,-30.37,-39.75,62.70,1.19,9.60,1.38,6.97,79.28,115.88
120,0,0,0,0,0,2020,8,2,0,2,2,0,0,0,4.01,3.26,4.98,4.99,33.27,26.80,24.05,27.27,23.93,1009.27,-30.52,-40.65,62.10,1.19,9.48,1.53,7.04,78.47,116.00
121,0,0,0,0,0,2020,8,2,0,2,3,0,0,0,4.02,3.26,4.98,4.99,32.97,27.24,24.03,27.28,23.92,1009.20,-31.12,-39.30,63.30,1.15,9.60,1.34,6.75,79.59,116.18
122,0,0,0,0,0,2020,8,2,0,2,4,0,0,0,4.01,3.26,4.98,4.98,33.47,27.02,24.06,27.32,23.92,1009.32,-30.37,-40.05,61.65,1.15,9.60,1.34,6.75,79.59,116.26
123,0,0,0,0,0,2020,8,2,0,2,5,0,0,0,4.02,3.26,4.98,4.99,33.05,27.14,24.04,27.31,23.94,1009.27,-29.77,-41.40,62.25,1.22,9.64,1.49,7.15,78.68,115.55
124,0,0,0,0,0,2020,8,2,0,2,6,0,0,0,4.02,3.26,4.99,4.99,33.11,26.76,24.07,27.41,23.96,1009.46,-30.67,-39.30,62.55,1.19,9.60,1.45,6.96,78.94,116.03
125,0,0,0,0,0,2020,8,2,0,2,7,0,0,0,4.02,3.26,4.98,4.99,32.72,27.46,24.11,27.38,23.92,1009.43,-29.02,-40.80,62.40,1.19,9.60,1.34,6.97,79.45,115.14
126,0,0,0,0,0,2020,8,2,0,2,8,0,0,0,4.01,3.26,4.98,4.95,33.15,26.80,24.09,27.41,23.95,1009.43,-30.37,-39.60,63.15,1.22,9.60,1.38,7.19,79.14,115.75
127,0,0,0,0,0,2020,8,2,0,2,9,0,0,0,4.02,3.25,4.98,4.99,33.14,27.22,24.12,27.43,23.93,1009.41,-31.27,-40.35,62.55,1.15,9.52,1.34,6.80,79.51,116.55
128,0,0,0,0,0,2020,8,2,0,2,10,0,0,0,4.01,3.26,4.98,4.94,33.76,26.34,24.12,27.48,23.93,1009.41,-30.52,-39.90,63.60,1.15,9.56,1.22,6.79,80.05,115.82
129,0,0,0,0,0,2020,8,2,0,2,11,0,0,0,4.02,3.26,4.98,4.98,33.25,27.39,24.11,27.45,23.93,1009.34,-30.22,-40.20,62.40,1.19,9.60,1.38,6.97,79.28,115.89
130,0,0,0,0,0,2020,8,2,0,2,12,0,0,0,4.01,3.26,4.99,4.99,32.70,26.25,24.13,27.50,23.95,1009.41,-30.07,-39.75,62.70,1.19,9.60,1.34,6.97,79.45,115.72
131,0,0,0,0,0,2020,8,2,0,2,13,0,0,0,4.02,3.25,4.98,4.99,33.16,27.26,24.11,27.52,23.98,1009.44,-30.22,-36.60,63.00,1.22,9.56,1.72,7.18,77.54,115.26
132,0,0,0,0,0,2020,8,2,0,2,14,0,0,0,4.02,3.26,4.99,4.98,32.29,26.65,24.13,27.55,23.98,1009.42,-30.22,-40.65,60.90,1.22,9.56,1.38,7.22,79.09,116.43
133,0,0,0,0,0,2020,8,2,0,2,15,0,0,0,3.89,3.25,4.98,4.99,33.15,27.30,24.14,27.57,23.98,1009.34,-30.67,-37.05,62.70,1.19,9.56,1.38,7.00,79.24,116.02
134,0,0,0,0,0,2020,8,2,0,2,16,0,0,0,4.02,3.26,4.98,4.99,33.82,26.96,24.16,27.59,23.98,1009.41,-29.62,-40.50,62.40,1.19,9.56,1.61,6.97,78.21,115.22
135,0,0,0,0,0,2020,8,2,0,2,17,0,0,0,3.95,3.25,4.98,4.99,32.99,27.79,24.16,27.58,24.04,1009.40,-30.52,-39.45,63.00,1.15,9.60,1.42,6.74,79.25,115.80
136,0,0,0,0,0,2020,8,2,0,2,18,0,0,0,4.01,3.26,4.99,4.99,33.69,26.41,24.16,27.66,24.01,1009.54,-29.77,-39.45,62.85,1.19,9.64,1.45,6.94,78.99,115.34
137,0,0,0,0,0,2020,8,2,0,2,19,0,0,0,3.93,3.25,4.98,4.98,33.59,27.58,24.18,27.72,24.04,1009.52,-29.32,-40.05,62.25,1.15,9.52,1.42,6.80,79.17,115.25
138,0,0,0,0,0,2020,8,2,0,2,20,0,0,0,4.00,3.26,4.98,4.99,33.61,27.22,24.18,27.66,24.02,1009.30,-30.22,-40.35,62.25,1.19,9.56,1.42,6.99,79.07,115.89
139,0,0,0,0,0,2020,8,2,0,2,21,0,0,0,3.89,3.26,4.98,4.99,33.51,27.28,24.20,27.66,24.03,1009.30,-30.37,-40.20,62.25,1.15,9.56,1.22,6.79,80.05,116.18
140,0,0,0,0,0,2020,8,2,0,2,22,0,0,0,4.01,3.26,4.99,4.99,34.45,26.65,24.21,27.70,24.02,1009.45,-30.52,-39.30,62.25,1.22,9.60,1.42,7.19,78.97,116.10
141,0,0,0,0,0,2020,8,2,0,2,23,0,0,0,4.02,3.26,4.99,4.99,33.32,27.72,24.22,27.78,24.03,1009.34,-30.52,-39.90,62.25,1.26,9.56,1.34,7.45,79.11,116.22
142,0,0,0,0,0,2020,8,2,0,2,24,0,0,0,4.01,3.26,4.98,4.99,33.33,27.18,24.22,27.83,24.03,1009.50,-29.92,-40.05,61.95,1.15,9.60,1.11,6.77,80.56,116.11
143,0,0,0,0,0,2020,8,2,0,2,25,0,0,0,4.02,3.26,4.98,4.99,33.54,27.44,24.23,27.77,24.07,1009.32,-30.22,-40.35,62.85,1.19,9.56,1.38,7.00,79.24,115.74
144,0,0,0,0,0,2020,8,2,0,2,26,0,0,0,4.02,3.26,4.98,4.99,34.28,26.78,24.25,27.85,24.03,1009.28,-29.17,-39.75,61.80,1.19,9.60,1.38,6.97,79.28,115.37
145,0,0,0,0,0,2020,8,2,0,2,27,0,0,0,4.02,3.26,4.98,4.95,33.36,27.82,24.25,27.87,24.08,1009.47,-29.62,-40.05,61.50,1.19,9.64,1.34,6.95,79.49,115.83
146,0,0,0,0,0,2020,8,2,0,2,28,0,0,0,4.01,3.26,4.98,4.99,34.06,26.50,24.26,27.84,24.09,1009.47,-31.12,-40.65,62.40,1.19,9.60,1.38,6.97,79.28,116.49
147,0,0,0,0,0,2020,8,2,0,2,29,0,0,0,4.02,3.25,4.99,4.96,33.75,27.54,24.24,27.88,24.11,1009.20,-30.22,-39.30,61.35,1.11,9.56,1.42,6.55,79.35,116.13
148,0,0,0,0,0,2020,8,2,0,2,30,0,0,0,4.01,3.26,4.99,4.99,33.88,26.56,24.28,27.88,24.09,1009.35,-30.07,-40.95,62.40,1.15,9.60,1.45,6.74,79.08,115.68
149,0,0,0,0,0,2020,8,2,0,2,31,0,0,0,4.01,3.25,4.98,4.95,33.46,27.37,24.29,27.90,24.08,1009.40,-30.07,-40.20,62.40,1.22,9.60,1.38,7.19,79.14,115.81
150,0,0,0,0,0,2020,8,2,0,2,32,0,0,0,4.02,3.26,4.98,4.99,33.16,26.61,24.30,27.98,24.08,1009.49,-30.07,-40.20,62.10,1.19,9.56,1.30,7.00,79.57,115.97
151,0,0,0,0,0,2020,8,2,0,2,33,0,0,0,4.02,3.25,4.98,4.94,33.52,27.30,24.29,27.96,24.09,1009.44,-30.37,-40.35,62.70,1.19,9.60,1.57,6.95,78.43,115.67
152,0,0,0,0,0,2020,8,2,0,2,34,0,0,0,3.99,3.26,4.98,4.99,33.21,27.32,24.30,27.98,24.11,1009.31,-31.12,-38.25,63.15,1.19,9.64,1.42,6.94,79.16,116.16
153,0,0,0,0,0,2020,8,2,0,2,35,0,0,0,4.02,3.25,4.98,4.99,33.64,27.10,24.32,27.99,24.12,1009.32,-29.92,-40.50,62.85,1.22,9.56,1.45,7.21,78.76,115.48
154,0,0,0,0,0,2020,8,2,0,2,36,0,0,0,4.01,3.26,4.99,4.99,34.53,27.14,24.33,28.04,24.11,1009.40,-31.12,-39.75,61.65,1.26,9.52,1.26,7.48,79.38,116.91
155,0,0,0,0,0,2020,8,2,0,2,37,0,0,0,4.02,3.25,4.98,4.99,33.81,27.83,24.34,28.07,24.11,1009.51,-30.67,-40.65,62.70,1.22,9.56,1.38,7.22,79.09,116.12
156,0,0,0,0,0,2020,8,2,0,2,38,0,0,0,3.90,3.26,4.99,4.99,34.69,26.34,24.33,28.07,24.12,1009.48,-30.97,-37.35,62.70,1.15,9.60,1.34,6.75,79.59,116.25
157,0,0,0,0,0,2020,8,2,0,2,39,0,0,0,4.02,3.26,4.98,4.98,33.52,27.71,24.34,28.12,24.14,1009.33,-30.07,-39.90,62.55,1.22,9.60,1.42,7.19,78.97,115.71
158,0,0,0,0,0,2020,8,2,0,2,40,0,0,0,3.84,3.26,4.98,4.99,32.90,27.05,24.34,28.16,24.14,1009.27,-31.12,-39.60,62.85,1.22,9.56,1.34,7.22,79.26,116.38
159,0,0,0,0,0,2020,8,2,0,2,41,0,0,0,4.02,3.25,4.98,4.98,33.67,27.28,24.36,28.14,24.15,1009.40,-30.67,-39.30,62.40,1.19,9.56,1.22,7.01,79.90,116.34
160,0,0,0,0,0,2020,8,2,0,2,42,0,0,0,4.01,3.26,4.98,4.99,33.99,27.13,24.37,28.10,24.16,1009.34,-30.52,-39.30,62.55,1.15,9.64,1.38,6.72,79.47,116.00
161,0,0,0,0,0,2020,8,2,0,2,43,0,0,0,4.01,3.25,4.98,4.99,33.97,27.72,24.37,28.16,24.14,1009.45,-30.97,-40.95,61.35,1.15,9.56,1.38,6.77,79.38,116.73
162,0,0,0,0,0,2020,8,2,0,2,44,0,0,0,3.98,3.26,4.98,4.99,34.35,27.93,24.40,28.27,24.20,1009.46,-29.92,-40.05,62.40,1.15,9.48,1.53,6.81,78.60,115.47
163,0,0,0,0,0,2020,8,2,0,2,45,0,0,0,4.01,3.25,4.98,4.99,34.01,27.72,24.40,28.21,24.15,1009.28,-29.62,-39.90,61.80,1.15,9.56,1.38,6.77,79.38,115.65
164,0,0,0,0,0,2020,8,2,0,2,46,0,0,0,4.01,3.26,4.99,4.99,34.91,27.44,24.40,28.25,24.14,1009.30,-30.52,-40.05,61.95,1.19,9.56,1.42,6.99,79.07,116.19
165,0,0,0,0,0,2020,8,2,0,2,47,0,0,0,4.02,3.26,4.98,4.99,33.88,27.38,24.40,28.22,24.16,1009.23,-30.07,-39.75,62.55,1.15,9.56,1.38,6.77,79.38,115.70
166,0,0,0,0,0,2020,8,2,0,2,48,0,0,0,4.02,3.26,4.99,4.99,33.86,26.68,24.43,28.23,24.18,1009.38,-30.82,-40.80,62.55,1.19,9.56,1.38,7.00,79.24,116.24
167,0,0,0,0,0,2020,8,2,0,2,49,0,0,0,4.02,3.26,4.98,4.99,33.66,27.69,24.42,28.28,24.19,1009.47,-30.67,-40.20,62.40,1.26,9.60,1.34,7.42,79.15,116.28
168,0,0,0,0,0,2020,8,2,0,2,50,0,0,0,4.01,3.26,4.98,4.95,34.35,26.88,24.43,28.31,24.24,1009.34,-30.22,-39.90,61.95,1.15,9.56,1.45,6.77,79.04,115.91
169,0,0,0,0,0,2020,8,2,0,2,51,0,0,0,4.02,3.26,4.98,4.99,33.90,27.88,24.44,28.34,24.25,1009.36,-30.97,-40.80,62.55,1.22,9.64,1.42,7.16,79.01,116.33
170,0,0,0,0,0,2020,8,2,0,2,52,0,0,0,4.01,3.26,4.98,4.93,34.90,27.07,24.44,28.34,24.24,1009.39,-30.67,-40.35,62.85,1.15,9.56,1.42,6.77,79.21,115.96
171,0,0,0,0,0,2020,8,2,0,2,53,0,0,0,4.02,3.25,4.98,4.99,33.75,27.61,24.44,28.38,24.23,1009.41,-30.82,-40.95,62.40,1.15,9.48,1.34,6.83,79.47,116.31
172,0,0,0,0,0,2020,8,2,0,2,54,0,0,0,4.02,3.26,4.99,4.99,33.84,27.58,24.47,28.40,24.28,1009.43,-29.77,-40.35,62.25,1.22,9.60,1.38,7.19,79.14,115.66
173,0,0,0,0,0,2020,8,2,0,2,55,0,0,0,4.02,3.26,4.98,4.99,33.89,27.56,24.48,28.39,24.24,1009.42,-30.37,-37.80,62.40,1.19,9.52,1.30,7.03,79.53,116.02
174,0,0,0,0,0,2020,8,2,0,2,56,0,0,0,4.01,3.26,4.99,4.98,34.24,27.54,24.45,28.39,24.24,1009.34,-30.97,-40.35,62.55,1.19,9.56,1.26,7.01,79.73,116.47
175,0,0,0,0,0,2020,8,2,0,2,57,0,0,0,3.90,3.26,4.98,4.99,34.05,27.71,24.48,28.41,24.26,1009.22,-31.12,-41.10,61.95,1.22,9.60,1.42,7.19,78.97,116.64
176,0,0,0,0,0,2020,8,2,0,2,58,0,0,0,4.02,3.26,4.99,4.99,34.10,26.74,24.50,28.41,24.27,1009.23,-29.77,-40.20,61.80,1.15,9.56,1.38,6.77,79.38,115.76
177,0,0,0,0,0,2020,8,2,0,2,59,0,0,0,3.94,3.25,4.98,4.99,33.93,27.54,24.49,28.46,24.26,1009.55,-31.12,-39.90,61.80,1.15,9.60,1.38,6.75,79.42,116.66
178,0,0,0,0,0,2020,8,2,0,3,0,0,0,0,4.02,3.26,4.99,4.99,34.88,26.94,24.50,28.48,24.29,1009.32,-29.77,-39.90,62.40,1.19,9.56,1.38,7.00,79.24,115.58
179,0,0,0,0,0,2020,8,2,0,3,1,0,0,0,3.93,3.25,4.98,4.99,34.15,27.92,24.52,28.51,24.27,1009.31,-30.67,-40.65,63.00,1.19,9.56,1.38,7.00,79.24,115.99
180,0,0,0,0,0,2020,8,2,0,3,2,0,0,0,4.01,3.26,4.99,4.99,34.37,26.60,24.53,28.54,24.32,1009.24,-29.92,-40.05,62.10,1.19,9.56,1.34,7.00,79.41,115.82
181,0,0,0,0,0,2020,8,2,0,3,3,0,0,0,3.89,3.26,4.98,4.99,34.10,27.91,24.56,28.51,24.31,1009.52,-30.37,-41.25,62.85,1.19,9.64,1.45,6.94,78.99,115.77
182,0,0,0,0,0,2020,8,2,0,3,4,0,0,0,4.01,3.26,4.99,4.99,34.87,26.60,24.56,28.52,24.31,1009.40,-31.42,-40.20,62.40,1.19,9.60,1.61,6.95,78.25,116.41
183,0,0,0,0,0,2020,8,2,0,3,5,0,0,0,4.02,3.26,4.98,4.98,33.81,28.10,24.56,28.58,24.27,1009.43,-30.52,-41.40,63.00,1.22,9.64,1.38,7.16,79.18,115.94
184,0,0,0,0,0,2020,8,2,0,3,6,0,0,0,4.01,3.26,4.99,4.99,34.45,27.16,24.56,28.58,24.29,1009.42,-29.47,-39.45,62.40,1.15,9.64,1.42,6.72,79.30,115.30
185,0,0,0,0,0,2020,8,2,0,3,7,0,0,0,4.01,3.26,4.98,4.99,34.51,27.84,24.56,28.64,24.31,1009.36,-30.22,-40.35,62.25,1.19,9.64,1.45,6.94,78.99,115.85
186,0,0,0,0,0,2020,8,2,0,3,8,0,0,0,4.01,3.26,4.98,4.99,34.80,26.55,24.57,28.56,24.31,1009.27,-30.22,-40.95,62.85,1.19,9.64,1.38,6.94,79.32,115.75
187,0,0,0,0,0,2020,8,2,0,3,9,0,0,0,4.02,3.25,4.98,4.95,34.26,27.32,24.58,28.62,24.37,1009.52,-30.97,-40.35,62.85,1.19,9.64,1.34,6.95,79.49,116.28
188,0,0,0,0,0,2020,8,2,0,3,10,0,0,0,4.02,3.26,4.98,4.99,34.93,27.36,24.59,28.68,24.34,1009.42,-29.92,-40.05,62.10,1.19,9.60,1.34,6.97,79.45,115.83
189,0,0,0,0,0,2020,8,2,0,3,11,0,0,0,4.02,3.26,4.98,4.97,34.45,27.83,24.61,28.72,24.31,1009.53,-30.52,-39.90,61.65,1.19,9.60,1.42,6.97,79.11,116.29
190,0,0,0,0,0,2020,8,2,0,3,12,0,0,0,4.02,3.26,4.99,4.99,34.86,27.77,24.62,28.71,24.33,1009.57,-30.52,-40.95,62.10,1.22,9.56,1.42,7.22,78.93,116.18
191,0,0,0,0,0,2020,8,2,0,3,13,0,0,0,4.02,3.25,4.98,4.95,34.39,27.83,24.62,28.73,24.37,1009.49,-29.47,-40.20,62.25,1.15,9.56,1.45,6.77,79.04,115.31
192,0,0,0,0,0,2020,8,2,0,3,14,0,0,0,4.02,3.26,4.98,4.99,34.68,27.37,24.62,28.71,24.34,1009.64,-29.32,-39.60,62.10,1.22,9.60,1.42,7.19,78.97,115.35
193,0,0,0,0,0,2020,8,2,0,3,15,0,0,0,4.01,3.26,4.98,4.94,34.12,28.08,24.65,28.76,24.38,1009.40,-30.52,-41.10,61.65,1.19,9.56,1.45,6.99,78.90,116.26
194,0,0,0,0,0,2020,8,2,0,3,16,0,0,0,3.99,3.26,4.98,4.99,34.73,27.98,24.64,28.73,24.39,1009.27,-30.82,-38.10,62.70,1.30,9.64,1.42,7.60,78.72,116.17
195,0,0,0,0,0,2020,8,2,0,3,17,0,0,0,4.01,3.26,4.99,4.99,34.60,27.94,24.65,28.81,24.41,1009.42,-29.02,-40.05,63.00,1.19,9.60,1.45,6.96,78.94,114.79
196,0,0,0,0,0,2020,8,2,0,3,18,0,0,0,4.00,3.26,4.98,4.99,33.96,27.84,24.64,28.79,24.38,1009.45,-30.67,-40.50,62.40,1.19,9.56,1.42,6.99,79.07,116.14
197,0,0,0,0,0,2020,8,2,0,3,19,0,0,0,4.01,3.26,4.98,4.99,34.73,28.20,24.67,28.76,24.41,1009.46,-31.12,-40.50,61.80,1.22,9.60,1.38,7.19,79.14,116.72
198,0,0,0,0,0,2020,8,2,0,3,20,0,0,0,3.89,3.26,4.98,4.99,34.70,27.81,24.67,28.80,24.41,1009.35,-30.07,-40.05,61.95,1.19,9.64,1.42,6.94,79.16,115.89
199,0,0,0,0,0,2020,8,2,0,3,21,0,0,0,4.02,3.26,4.99,4.99,34.74,27.99,24.68,28.84,24.41,1009.48,-30.07,-40.50,62.40,1.15,9.60,1.11,6.77,80.56,116.07
200,0,0,0,0,0,2020,8,2,0,3,22,0,0,0,3.85,3.26,4.98,4.99,34.75,27.06,24.68,28.85,24.44,1009.55,-30.07,-39.90,61.95,1.15,9.52,1.30,6.81,79.68,115.99
201,0,0,0,0,0,2020,8,2,0,3,23,0,0,0,4.01,3.25,4.98,4.99,34.29,28.07,24.71,28.88,24.39,1009.51,-30.97,-40.35,61.80,1.19,9.56,1.38,7.00,79.24,116.59
202,0,0,0,0,0,2020,8,2,0,3,24,0,0,0,4.01,3.26,4.99,4.99,35.04,27.08,24.70,28.91,24.44,1009.52,-30.37,-40.95,61.35,1.11,9.60,1.53,6.51,78.86,116.12
203,0,0,0,0,0,2020,8,2,0,3,25,0,0,0,4.02,3.26,4.98,4.99,34.54,27.95,24.70,28.91,24.45,1009.57,-30.67,-40.50,61.80,1.11,9.56,1.42,6.55,79.35,116.29
204,0,0,0,0,0,2020,8,2,0,3,26,0,0,0,3.98,3.26,4.99,4.99,34.50,27.74,24.72,28.93,24.46,1009.34,-30.97,-40.65,62.55,1.11,9.52,1.34,6.58,79.65,116.33
205,0,0,0,0,0,2020,8,2,0,3,27,0,0,0,4.01,3.26,4.98,4.99,34.72,27.96,24.73,28.99,24.47,1009.43,-29.77,-40.80,62.25,1.19,9.71,1.45,6.88,79.07,115.57
206,0,0,0,0,0,2020,8,2,0,3,28,0,0,0,4.01,3.26,4.99,4.99,35.21,27.76,24.76,28.93,24.47,1009.44,-29.92,-40.20,61.95,1.11,9.56,1.45,6.54,79.18,115.69
207,0,0,0,0,0,2020,8,2,0,3,29,0,0,0,4.01,3.25,4.98,4.99,34.97,27.87,24.73,28.99,24.45,1009.35,-30.52,-40.65,61.50,1.15,9.56,1.34,6.78,79.55,116.42
208,0,0,0,0,0,2020,8,2,0,3,30,0,0,0,4.02,3.26,4.99,4.99,34.91,26.93,24.75,29.05,24.52,1009.51,-30.07,-40.50,62.70,1.19,9.68,1.64,6.89,78.17,115.39
209,0,0,0,0,0,2020,8,2,0,3,31,0,0,0,4.01,3.25,4.98,4.99,34.65,27.98,24.76,29.05,24.52,1009.41,-30.52,-39.75,62.55,1.15,9.52,1.45,6.79,79.00,115.91
210,0,0,0,0,0,2020,8,2,0,3,32,0,0,0,4.02,3.26,4.99,4.95,35.26,27.14,24.77,29.08,24.48,1009.43,-29.62,-40.35,61.95,1.22,9.64,1.38,7.16,79.18,115.67
211,0,0,0,0,0,2020,8,2,0,3,33,0,0,0,4.02,3.25,4.98,4.99,34.54,27.95,24.77,29.08,24.50,1009.38,-30.37,-40.80,63.75,1.26,9.56,1.30,7.45,79.27,115.68
212,0,0,0,0,0,2020,8,2,0,3,34,0,0,0,4.01,3.26,4.98,4.94,35.43,27.23,24.78,29.08,24.46,1009.34,-29.77,-39.75,61.80,1.22,9.56,1.45,7.21,78.76,115.71
213,0,0,0,0,0,2020,8,2,0,3,35,0,0,0,4.01,3.25,4.98,4.99,34.51,27.97,24.79,29.08,24.50,1009.47,-30.67,-40.80,62.25,1.19,9.60,1.38,6.97,79.28,116.25
214,0,0,0,0,0,2020,8,2,0,3,36,0,0,0,4.01,3.26,4.99,4.99,34.40,27.67,24.79,29.07,24.50,1009.35,-30.22,-40.35,60.90,1.07,9.64,1.26,6.29,80.26,116.45
215,0,0,0,0,0,2020,8,2,0,3,37,0,0,0,4.01,3.25,4.98,4.99,34.75,27.67,24.82,29.14,24.48,1009.42,-31.12,-37.35,62.25,1.15,9.56,1.38,6.77,79.38,116.46
216,0,0,0,0,0,2020,8,2,0,3,38,0,0,0,4.01,3.26,4.98,4.98,35.15,27.74,24.79,29.14,24.52,1009.30,-29.92,-40.35,62.25,1.15,9.60,1.42,6.74,79.25,115.67
217,0,0,0,0,0,2020,8,2,0,3,39,0,0,0,3.90,3.26,4.98,4.98,34.45,28.45,24.81,29.17,24.55,1009.49,-30.67,-37.20,61.95,1.15,9.56,1.07,6.80,80.68,116.59
218,0,0,0,0,0,2020,8,2,0,3,40,0,0,0,4.01,3.26,4.98,4.99,35.70,28.07,24.83,29.16,24.53,1009.28,-30.82,-39.60,63.30,1.26,9.60,1.34,7.42,79.15,116.06
219,0,0,0,0,0,2020,8,2,0,3,41,0,0,0,3.95,3.25,4.98,4.99,34.48,27.79,24.84,29.19,24.55,1009.34,-30.07,-40.80,61.50,1.19,9.64,1.38,6.94,79.32,116.11
220,0,0,0,0,0,2020,8,2,0,3,42,0,0,0,4.01,3.26,4.99,4.99,35.70,27.46,24.86,29.21,24.52,1009.60,-30.07,-39.90,61.50,1.22,9.60,1.38,7.19,79.14,116.11
221,0,0,0,0,0,2020,8,2,0,3,43,0,0,0,4.01,3.26,4.98,4.99,34.94,28.39,24.85,29.22,24.56,1009.32,-30.37,-40.50,62.40,1.22,9.56,1.34,7.22,79.26,116.06
222,0,0,0,0,0,2020,8,2,0,3,44,0,0,0,4.02,3.26,4.99,4.99,35.10,27.85,24.86,29.20,24.56,1009.58,-30.22,-40.80,61.65,1.15,9.60,1.53,6.73,78.73,115.94
223,0,0,0,0,0,2020,8,2,0,3,45,0,0,0,3.89,3.25,4.98,4.99,34.75,28.00,24.86,29.27,24.58,1009.43,-30.37,-40.50,61.35,1.19,9.60,1.19,6.99,80.09,116.57
224,0,0,0,0,0,2020,8,2,0,3,46,0,0,0,4.01,3.26,4.99,4.99,35.66,26.68,24.86,29.26,24.58,1009.45,-30.52,-40.50,61.65,1.22,9.60,1.34,7.20,79.30,116.42
225,0,0,0,0,0,2020,8,2,0,3,47,0,0,0,4.02,3.25,4.98,4.99,34.89,28.28,24.88,29.27,24.58,1009.22,-29.92,-40.35,62.40,1.15,9.56,1.07,6.80,80.68,116.00
226,0,0,0,0,0,2020,8,2,0,3,48,0,0,0,4.01,3.26,4.98,4.99,35.51,27.21,24.90,29.29,24.58,1009.37,-30.52,-39.45,61.50,1.22,9.60,1.38,7.19,79.14,116.40
227,0,0,0,0,0,2020,8,2,0,3,49,0,0,0,4.02,3.26,4.98,4.98,34.63,28.48,24.89,29.32,24.56,1009.49,-30.37,-41.40,61.80,1.19,9.60,1.49,6.96,78.77,116.08
228,0,0,0,0,0,2020,8,2,0,3,50,0,0,0,4.01,3.26,4.98,4.99,35.90,27.71,24.90,29.30,24.59,1009.61,-30.67,-40.50,61.80,1.15,9.68,1.15,6.72,80.48,116.64
229,0,0,0,0,0,2020,8,2,0,3,51,0,0,0,4.02,3.26,4.98,4.95,35.08,28.09,24.91,29.36,24.59,1009.48,-30.97,-41.55,61.95,1.19,9.56,1.42,6.99,79.07,116.51
230,0,0,0,0,0,2020,8,2,0,3,52,0,0,0,4.01,3.26,4.99,4.99,35.24,26.94,24.91,29.38,24.64,1009.49,-30.07,-39.60,61.95,1.19,9.56,1.38,7.00,79.24,115.92
231,0,0,0,0,0,2020,8,2,0,3,53,0,0,0,4.02,3.26,4.98,4.97,34.92,28.41,24.94,29.34,24.65,1009.37,-30.52,-40.80,61.80,1.22,9.52,1.15,7.27,80.01,116.59
232,0,0,0,0,0,2020,8,2,0,3,54,0,0,0,4.01,3.26,4.98,4.99,35.72,27.79,24.94,29.36,24.59,1009.45,-30.67,-40.65,61.50,1.19,9.60,1.38,6.97,79.28,116.50
233,0,0,0,0,0,2020,8,2,0,3,55,0,0,0,4.01,3.25,4.98,4.95,35.00,28.19,24.92,29.38,24.62,1009.45,-30.67,-40.80,61.80,1.22,9.56,1.38,7.22,79.09,116.43
234,0,0,0,0,0,2020,8,2,0,3,56,0,0,0,4.01,3.26,4.99,4.99,35.65,27.60,24.94,29.39,24.62,1009.46,-30.67,-37.35,62.55,1.11,9.52,1.42,6.57,79.31,115.99
235,0,0,0,0,0,2020,8,2,0,3,57,0,0,0,4.01,3.26,4.98,4.94,35.40,28.37,24.96,29.42,24.63,1009.39,-31.12,-40.95,62.40,1.11,9.56,1.34,6.55,79.70,116.49
236,0,0,0,0,0,2020,8,2,0,3,58,0,0,0,4.02,3.26,4.99,4.99,35.43,27.79,24.97,29.41,24.63,1009.42,-31.42,-36.30,61.65,1.22,9.60,1.42,7.19,78.97,116.86
237,0,0,0,0,0,2020,8,2,0,3,59,0,0,0,4.02,3.26,4.98,4.99,35.70,28.01,24.96,29.46,24.70,1009.40,-30.52,-40.80,62.25,1.19,9.64,1.42,6.94,79.16,116.11
238,0,0,0,0,0,2020,8,2,0,4,0,0,0,0,4.01,3.26,4.98,4.99,35.78,27.34,24.99,29.41,24.66,1009.42,-30.97,-37.20,62.40,1.22,9.56,1.42,7.22,78.93,116.31
239,0,0,0,0,0,2020,8,2,0,4,1,0,0,0,4.02,3.25,4.98,4.99,35.29,28.19,24.97,29.43,24.67,1009.46,-30.82,-39.90,62.25,1.15,9.75,1.61,6.62,78.56,116.05
240,0,0,0,0,0,2020,8,2,0,4,2,0,0,0,3.90,3.26,4.99,4.99,35.63,27.00,24.98,29.48,24.64,1009.54,-31.57,-37.05,61.35,1.22,9.60,1.45,7.18,78.80,117.03
241,0,0,0,0,0,2020,8,2,0,4,3,0,0,0,4.02,3.26,4.98,4.99,34.51,28.56,24.96,29.49,24.66,1009.41,-30.52,-40.80,63.00,1.19,9.56,1.42,6.99,79.07,115.85
242,0,0,0,0,0,2020,8,2,0,4,4,0,0,0,3.86,3.26,4.99,4.99,36.48,27.87,24.99,29.51,24.68,1009.59,-30.52,-40.20,62.25,1.15,9.56,1.49,6.76,78.87,115.97
243,0,0,0,0,0,2020,8,2,0,4,5,0,0,0,4.01,3.25,4.99,4.98,35.03,27.90,25.01,29.47,24.69,1009.36,-30.82,-40.50,62.25,1.19,9.56,1.34,7.00,79.41,116.38
244,0,0,0,0,0,2020,8,2,0,4,6,0,0,0,4.01,3.26,4.99,4.99,36.65,26.95,25.03,29.52,24.70,1009.46,-30.67,-40.35,61.50,1.03,9.60,1.38,6.08,79.84,116.38
245,0,0,0,0,0,2020,8,2,0,4,7,0,0,0,4.02,3.25,4.98,4.98,35.20,27.80,25.02,29.55,24.73,1009.22,-30.07,-40.65,62.10,1.19,9.52,1.15,7.05,80.17,116.15
246,0,0,0,0,0,2020,8,2,0,4,8,0,0,0,3.97,3.26,4.99,4.99,35.65,27.74,25.04,29.56,24.73,1009.55,-29.47,-40.35,61.80,1.22,9.56,1.34,7.22,79.26,115.65
247,0,0,0,0,0,2020,8,2,0,4,9,0,0,0,4.02,3.25,4.98,4.99,35.09,28.42,25.05,29.61,24.75,1009.53,-31.12,-40.20,61.65,1.19,9.52,1.34,7.03,79.37,116.78
248,0,0,0,0,0,2020,8,2,0,4,10,0,0,0,4.01,3.26,4.98,4.99,34.73,27.80,25.06,29.58,24.70,1009.41,-30.37,-41.40,60.75,1.22,9.64,1.42,7.16,79.01,116.56
249,0,0,0,0,0,2020,8,2,0,4,11,0,0,0,4.01,3.25,4.98,4.99,35.36,28.45,25.05,29.61,24.70,1009.48,-30.52,-39.90,61.35,1.22,9.56,1.38,7.22,79.09,116.46
250,0,0,0,0,0,2020,8,2,0,4,12,0,0,0,4.01,3.26,4.99,4.99,35.58,27.89,25.08,29.61,24.74,1009.51,-31.27,-38.70,62.55,1.15,9.60,1.34,6.75,79.59,116.53
251,0,0,0,0,0,2020,8,2,0,4,13,0,0,0,4.02,3.25,4.98,4.99,35.33,28.07,25.07,29.65,24.68,1009.36,-30.67,-39.60,61.65,1.15,9.48,1.38,6.83,79.30,116.40
252,0,0,0,0,0,2020,8,2,0,4,14,0,0,0,4.01,3.26,4.98,4.94,35.77,27.02,25.07,29.65,24.78,1009.16,-31.12,-40.50,62.10,1.15,9.56,1.38,6.77,79.38,116.56
253,0,0,0,0,0,2020,8,2,0,4,15,0,0,0,4.01,3.26,4.98,4.99,35.21,27.97,25.11,29.69,24.75,1009.54,-29.47,-40.95,61.05,1.19,9.56,1.42,6.99,79.07,115.80
254,0,0,0,0,0,2020,8,2,0,4,16,0,0,0,4.01,3.26,4.98,4.94,35.85,27.66,25.10,29.66,24.76,1009.67,-31.42,-40.95,61.80,1.19,9.56,1.42,6.99,79.07,116.85
255,0,0,0,0,0,2020,8,2,0,4,17,0,0,0,4.01,3.25,4.98,4.99,35.34,28.67,25.10,29.70,24.80,1009.35,-30.67,-40.65,63.00,1.15,9.52,1.42,6.80,79.17,115.92
256,0,0,0,0,0,2020,8,2,0,4,18,0,0,0,4.01,3.26,4.98,4.99,36.06,28.02,25.12,29.72,24.79,1009.38,-30.07,-40.65,62.25,1.19,9.56,1.26,7.01,79.73,115.98
257,0,0,0,0,0,2020,8,2,0,4,19,0,0,0,4.01,3.25,4.98,4.99,35.57,28.74,25.12,29.72,24.78,1009.47,-30.82,-37.05,61.95,1.19,9.56,1.38,7.00,79.24,116.38
258,0,0,0,0,0,2020,8,2,0,4,20,0,0,0,4.01,3.26,4.98,4.97,35.57,27.52,25.13,29.68,24.80,1009.34,-29.77,-39.75,60.75,1.19,9.56,1.38,7.00,79.24,116.13
259,0,0,0,0,0,2020,8,2,0,4,21,0,0,0,3.92,3.26,4.98,4.99,35.16,28.43,25.13,29.70,24.77,1009.53,-29.77,-39.90,62.25,1.15,9.56,1.49,6.76,78.87,115.47
260,0,0,0,0,0,2020,8,2,0,4,22,0,0,0,4.01,3.26,4.99,4.99,36.05,27.62,25.13,29.77,24.81,1009.35,-29.92,-40.05,61.80,1.15,9.60,1.30,6.75,79.76,115.95
261,0,0,0,0,0,2020,8,2,0,4,23,0,0,0,3.96,3.25,4.98,4.99,35.34,28.14,25.13,29.73,24.77,1009.48,-30.22,-39.30,61.50,1.19,9.48,1.30,7.06,79.49,116.25
262,0,0,0,0,0,2020,8,2,0,4,24,0,0,0,4.01,3.26,4.98,4.99,35.60,27.02,25.17,29.78,24.80,1009.47,-30.52,-40.95,61.50,1.19,9.56,1.30,7.00,79.57,116.50
263,0,0,0,0,0,2020,8,2,0,4,25,0,0,0,4.00,3.26,4.98,4.99,35.43,28.48,25.17,29.77,24.80,1009.40,-29.92,-40.50,60.90,1.15,9.56,1.34,6.78,79.55,116.22
264,0,0,0,0,0,2020,8,2,0,4,26,0,0,0,4.02,3.26,4.98,4.99,36.12,27.81,25.18,29.74,24.82,1009.39,-29.92,-40.35,60.90,1.19,9.60,1.07,7.00,80.55,116.55
265,0,0,0,0,0,2020,8,2,0,4,27,0,0,0,3.89,3.26,4.98,4.98,35.45,28.71,25.17,29.76,24.84,1009.48,-30.82,-40.35,61.80,1.15,9.52,1.38,6.80,79.34,116.46
266,0,0,0,0,0,2020,8,2,0,4,28,0,0,0,4.01,3.26,4.99,4.99,36.41,27.67,25.17,29.77,24.84,1009.28,-29.92,-39.45,62.25,1.15,9.64,1.38,6.72,79.47,115.70
267,0,0,0,0,0,2020,8,2,0,4,29,0,0,0,4.01,3.26,4.98,4.99,35.26,28.48,25.20,29.84,24.84,1009.61,-30.22,-40.20,61.50,1.15,9.56,1.26,6.78,79.89,116.30
268,0,0,0,0,0,2020,8,2,0,4,30,0,0,0,4.00,3.26,4.98,4.99,36.44,28.72,25.18,29.81,24.84,1009.42,-31.12,-40.50,61.05,1.22,9.60,1.42,7.19,78.97,116.94
269,0,0,0,0,0,2020,8,2,0,4,31,0,0,0,4.02,3.26,4.98,4.99,35.23,28.40,25.19,29.83,24.90,1009.43,-31.42,-40.20,60.45,1.15,9.52,1.38,6.80,79.34,117.34
270,0,0,0,0,0,2020,8,2,0,4,32,0,0,0,4.01,3.26,4.98,4.99,35.63,28.15,25.22,29.77,24.84,1009.66,-30.52,-39.90,61.95,1.15,9.60,1.38,6.75,79.42,116.21
271,0,0,0,0,0,2020,8,2,0,4,33,0,0,0,4.02,3.26,4.98,4.95,35.63,28.73,25.21,29.90,24.84,1009.55,-30.37,-40.05,61.65,1.19,9.56,1.38,7.00,79.24,116.24
272,0,0,0,0,0,2020,8,2,0,4,34,0,0,0,4.01,3.26,4.99,4.99,36.73,27.74,25.22,29.84,24.91,1009.40,-29.77,-40.65,62.40,1.11,9.56,1.38,6.55,79.52,115.53
273,0,0,0,0,0,2020,8,2,0,4,35,0,0,0,4.02,3.25,4.99,4.97,35.21,28.56,25.24,29.86,24.90,1009.40,-30.97,-40.50,61.50,1.15,9.60,1.38,6.75,79.42,116.67
274,0,0,0,0,0,2020,8,2,0,4,36,0,0,0,4.02,3.26,4.98,4.99,35.28,28.49,25.24,29.89,24.85,1009.26,-30.37,-39.60,61.95,1.19,9.60,1.34,6.97,79.45,116.17
275,0,0,0,0,0,2020,8,2,0,4,37,0,0,0,4.01,3.25,4.98,4.97,35.89,28.60,25.25,29.94,24.84,1009.53,-30.67,-40.05,61.80,1.07,9.64,1.38,6.28,79.74,116.31
276,0,0,0,0,0,2020,8,2,0,4,38,0,0,0,4.01,3.26,4.99,4.99,35.80,27.86,25.26,29.92,24.88,1009.44,-33.82,-34.80,59.85,2.45,9.03,1.91,14.86,71.01,118.01
277,0,0,0,0,0,2020,8,2,0,4,39,0,0,0,4.02,3.25,4.98,4.94,35.66,28.35,25.24,29.95,24.90,1009.49,-40.57,-37.35,60.30,3.25,8.91,1.64,19.74,67.76,121.08
278,0,0,0,0,0,2020,8,2,0,4,40,0,0,0,4.01,3.26,4.98,4.99,36.10,27.40,25.26,29.89,24.91,1009.28,-27.07,-23.70,48.60,2.60,7.76,4.63,16.05,55.64,114.02
279,0,0,0,0,0,2020,8,2,0,4,41,0,0,0,4.02,3.25,4.98,4.99,35.84,28.70,25.27,29.98,24.90,1009.34,-35.17,-17.40,44.85,3.67,7.80,4.36,22.33,53.85,120.90
280,0,0,0,0,0,2020,8,2,0,4,42,0,0,0,4.01,3.26,4.99,4.99,36.41,27.84,25.29,29.94,24.91,1009.33,-32.32,-19.05,44.55,4.13,6.65,4.09,27.87,48.86,115.09
281,0,0,0,0,0,2020,8,2,0,4,43,0,0,0,4.02,3.26,4.98,4.99,36.30,28.77,25.29,29.96,24.91,1009.51,-34.42,-18.60,44.40,3.37,8.03,4.36,20.22,55.56,121.53
282,0,0,0,0,0,2020,8,2,0,4,44,0,0,0,3.89,3.26,4.99,4.99,36.64,28.07,25.29,29.98,24.93,1009.54,-34.42,-15.30,44.85,3.17,8.15,4.55,18.79,55.74,121.98
283,0,0,0,0,0,2020,8,2,0,4,45,0,0,0,4.02,3.26,4.98,4.99,35.96,28.33,25.30,30.03,24.94,1009.43,-36.07,-16.80,44.40,3.79,7.69,4.55,22.97,52.40,121.49
284,0,0,0,0,0,2020,8,2,0,4,46,0,0,0,3.89,3.26,4.98,4.99,36.57,27.37,25.31,30.02,24.91,1009.64,-32.77,-20.55,47.10,3.02,7.96,3.79,18.93,58.66,119.45
285,0,0,0,0,0,2020,8,2,0,4,47,0,0,0,3.90,3.26,4.98,4.99,36.64,27.79,25.33,30.02,24.94,1009.49,-33.82,-18.45,44.70,3.48,7.92,4.44,20.98,54.54,120.43
Packet Number,SIV,FixType,Latitude,Longitude,Altitude,Year,Month,Day,Hour,Min,Sec,NNV,NEV,NDV,Battery,3v3 Supply,5v Supply,Radio Supply,Analog Internal,Analog External,Altimeter Temp,Digital Internal,Digital External,Pressure,Mag X,Mag Y,Mag Z,Accel A,Accel Y,Accel Z,Pitch,Roll,Yaw
0,0,0,0,0,0,2020,8,2,0,0,2,0,0,0,3.98,3.26,4.98,4.99,36.48,28.07,25.38,30.06,25.04,1009.32,-35.62,-30.00,54.45,2.22,9.03,3.33,12.99,66.10,120.11
1,0,0,0,0,0,2020,8,2,0,0,3,0,0,0,3.99,3.25,4.98,4.99,35.47,28.73,25.40,30.10,25.01,1009.52,-35.32,-30.90,54.15,2.03,9.06,3.17,11.92,67.44,120.31
2,0,0,0,0,0,2020,8,2,0,0,4,0,0,0,4.00,3.26,4.98,4.99,35.94,28.19,25.39,30.04,25.00,1009.60,-33.37,-30.75,52.80,1.95,9.91,3.44,10.54,68.23,119.68
3,0,0,0,0,0,2020,8,2,0,0,5,0,0,0,3.99,3.25,4.99,4.99,35.46,28.69,25.40,29.98,25.03,1009.39,-28.27,-28.20,50.55,1.61,8.87,3.37,9.61,67.20,116.71
4,0,0,0,0,0,2020,8,2,0,0,6,0,0,0,3.99,3.26,4.99,4.99,36.49,27.86,25.41,29.99,25.02,1009.51,-30.67,-35.40,56.70,1.42,9.29,2.68,8.32,71.95,116.73
5,0,0,0,0,0,2020,8,2,0,0,7,0,0,0,4.01,3.25,4.98,4.99,36.20,28.59,25.42,29.99,25.05,1009.43,-30.52,-36.45,58.05,1.45,9.29,2.49,8.59,72.78,116.35
6,0,0,0,0,0,2020,8,2,0,0,8,0,0,0,3.99,3.26,4.99,4.95,36.38,27.96,25.43,30.02,25.06,1009.34,-30.52,-36.45,57.30,1.30,9.41,2.37,7.63,73.96,116.73
7,0,0,0,0,0,2020,8,2,0,0,9,0,0,0,3.98,3.25,4.99,4.99,35.52,28.83,25.43,29.98,25.07,1009.40,-30.67,-36.15,58.80,1.42,9.37,2.26,8.35,74.13,116.45
8,0,0,0,0,0,2020,8,2,0,0,10,0,0,0,4.00,3.26,4.98,4.99,36.21,27.45,25.43,30.02,25.07,1009.43,-30.97,-35.85,59.40,1.45,9.29,2.29,8.63,73.71,116.39
9,0,0,0,0,0,2020,8,2,0,0,11,0,0,0,3.99,3.25,4.99,4.99,35.57,28.70,25.45,30.02,25.07,1009.66,-29.62,-37.20,58.95,1.49,9.48,2.56,8.63,72.64,115.39
10,0,0,0,0,0,2020,8,2,0,0,12,0,0,0,3.99,3.26,4.98,4.99,36.64,28.17,25.45,30.08,25.08,1009.44,-29.02,-38.85,67.95,1.15,10.02,0.99,6.50,81.38,113.69
11,0,0,0,0,0,2020,8,2,0,0,13,0,0,0,3.94,3.25,4.99,4.99,35.71,28.83,25.45,30.10,25.07,1009.37,-28.27,-38.10,66.60,1.07,9.64,0.88,6.31,81.82,113.62
12,0,0,0,0,0,2020,8,2,0,0,14,0,0,0,4.00,3.26,4.99,4.99,36.46,27.79,25.46,30.04,25.08,1009.46,-29.02,-38.25,67.80,1.11,9.60,0.76,6.57,82.01,113.88
13,0,0,0,0,0,2020,8,2,0,0,15,0,0,0,3.82,3.26,4.98,4.99,35.64,28.76,25.48,30.09,25.09,1009.47,-25.57,-25.65,67.05,0.84,9.98,1.76,4.75,78.95,110.54
14,0,0,0,0,0,2020,8,2,0,0,16,0,0,0,3.99,3.26,4.98,4.99,36.76,27.72,25.48,30.04,25.11,1009.47,-20.17,-23.10,64.20,1.57,11.05,0.88,8.05,80.76,107.94
15,0,0,0,0,0,2020,8,2,0,0,17,0,0,0,4.00,3.26,4.98,4.99,35.96,28.75,25.50,30.12,25.13,1009.41,-21.37,-16.50,52.65,0.08,8.53,2.49,0.49,73.74,111.18
16,0,0,0,0,0,2020,8,2,0,0,18,0,0,0,3.99,3.26,4.99,4.99,36.14,27.92,25.48,30.09,25.13,1009.36,-25.42,-13.80,59.55,-0.08,9.87,2.03,-0.44,78.38,112.58
17,0,0,0,0,0,2020,8,2,0,0,19,0,0,0,3.99,3.26,4.98,4.98,35.56,28.52,25.50,30.08,25.14,1009.45,-26.02,-4.05,47.55,0.42,9.64,1.19,2.48,82.56,118.52
18,0,0,0,0,0,2020,8,2,0,0,20,0,0,0,3.99,3.26,4.98,4.99,35.85,28.12,25.51,30.16,25.11,1009.44,-48.97,-3.60,54.90,0.34,9.83,2.33,1.95,76.51,131.88
19,0,0,0,0,0,2020,8,2,0,0,21,0,0,0,3.99,3.25,4.98,4.98,35.49,28.42,25.49,30.13,25.11,1009.30,-32.77,-17.85,92.40,2.07,13.69,-0.38,8.57,81.28,109.31
20,0,0,0,0,0,2020,8,2,0,0,22,0,0,0,3.99,3.26,4.99,4.99,36.03,28.24,25.52,30.17,25.17,1009.33,-26.62,-20.40,89.85,0.50,9.68,0.42,2.94,86.15,106.71
21,0,0,0,0,0,2020,8,2,0,0,23,0,0,0,4.00,3.25,4.98,4.97,35.74,28.72,25.51,30.12,25.17,1009.35,-25.42,-20.25,90.75,1.80,9.37,1.11,10.79,77.30,105.01
22,0,0,0,0,0,2020,8,2,0,0,24,0,0,0,3.99,3.26,4.98,4.99,36.97,27.41,25.54,30.16,25.11,1009.30,-24.07,-20.10,91.50,0.76,9.68,0.34,4.52,85.05,105.03
23,0,0,0,0,0,2020,8,2,0,0,25,0,0,0,3.99,3.26,4.99,4.97,35.81,28.61,25.54,30.17,25.14,1009.30,-25.42,-20.85,91.05,0.69,9.68,0.38,4.07,85.35,105.88
24,0,0,0,0,0,2020,8,2,0,0,26,0,0,0,3.99,3.26,4.98,4.99,36.82,28.36,25.56,30.20,25.16,1009.51,-26.02,-17.10,91.50,0.69,9.52,0.34,4.13,85.38,106.06
25,0,0,0,0,0,2020,8,2,0,0,27,0,0,0,3.99,3.25,4.99,4.94,36.17,28.42,25.56,30.15,25.23,1009.34,-26.77,-19.80,90.75,0.88,9.75,0.27,5.15,84.61,106.70
26,0,0,0,0,0,2020,8,2,0,0,28,0,0,0,3.98,3.26,4.99,4.99,36.07,26.58,25.55,30.26,25.17,1009.19,-25.72,-20.10,90.90,0.76,9.68,0.34,4.52,85.05,106.08
27,0,0,0,0,0,2020,8,2,0,0,29,0,0,0,4.01,3.25,4.98,4.99,36.10,27.72,25.56,30.25,25.17,1009.23,-26.32,-20.55,91.65,0.73,9.71,0.34,4.28,85.27,106.30
28,0,0,0,0,0,2020,8,2,0,0,30,0,0,0,3.98,3.26,4.98,4.99,36.27,28.32,25.57,30.25,25.16,1009.32,-25.57,-20.40,91.80,0.80,9.71,0.34,4.72,84.86,105.85
29,0,0,0,0,0,2020,8,2,0,0,31,0,0,0,4.00,3.26,4.99,4.99,37.04,28.28,25.57,30.27,25.20,1009.26,-25.87,-21.15,91.80,0.76,9.68,0.38,4.52,84.95,106.03
30,0,0,0,0,0,2020,8,2,0,0,32,0,0,0,3.83,3.26,4.99,4.99,37.11,27.83,25.60,30.27,25.20,1009.33,-26.02,-20.70,90.45,0.73,9.68,0.42,4.29,85.04,106.32
31,0,0,0,0,0,2020,8,2,0,0,33,0,0,0,4.00,3.25,4.98,4.99,36.29,28.28,25.61,30.31,25.19,1009.32,-26.17,-21.30,91.65,0.80,9.68,0.34,4.74,84.84,106.24
32,0,0,0,0,0,2020,8,2,0,0,34,0,0,0,3.80,3.26,4.99,4.99,36.61,28.25,25.60,30.33,25.17,1009.50,-25.87,-20.55,90.90,0.80,9.60,0.34,4.78,84.80,106.18
33,0,0,0,0,0,2020,8,2,0,0,35,0,0,0,4.00,3.25,4.98,4.99,35.97,27.80,25.60,30.33,25.21,1009.46,-25.42,-20.70,90.75,0.84,9.64,0.15,4.99,84.93,105.99
34,0,0,0,0,0,2020,8,2,0,0,36,0,0,0,3.99,3.26,4.98,4.99,35.58,28.58,25.62,30.31,25.23,1009.42,-25.87,-20.85,90.45,0.76,9.71,0.31,4.50,85.15,106.27
35,0,0,0,0,0,2020,8,2,0,0,37,0,0,0,4.00,3.25,4.99,4.99,35.95,28.63,25.60,30.34,25.23,1009.26,-26.32,-20.70,91.05,0.76,9.68,0.31,4.52,85.13,106.42
36,0,0,0,0,0,2020,8,2,0,0,38,0,0,0,3.91,3.26,4.99,4.99,37.06,28.39,25.63,30.32,25.26,1009.32,-26.02,-21.15,91.35,0.80,9.71,0.46,4.72,84.56,106.17
37,0,0,0,0,0,2020,8,2,0,0,39,0,0,0,4.00,3.25,4.98,4.99,36.05,29.24,25.62,30.33,25.21,1009.33,-26.02,-20.25,90.90,0.76,9.68,0.38,4.52,84.95,106.24
38,0,0,0,0,0,2020,8,2,0,0,40,0,0,0,3.99,3.26,4.98,4.99,37.57,28.28,25.65,30.41,25.25,1009.44,-25.72,-20.85,90.90,0.76,9.64,0.31,4.54,85.11,106.11
39,0,0,0,0,0,2020,8,2,0,0,41,0,0,0,3.99,3.25,4.98,4.99,35.85,28.74,25.65,30.35,25.26,1009.33,-25.27,-20.85,90.75,0.73,9.68,0.31,4.29,85.34,105.87
40,0,0,0,0,0,2020,8,2,0,0,42,0,0,0,3.99,3.26,4.99,4.99,37.10,28.04,25.66,30.38,25.27,1009.32,-25.12,-19.65,90.75,0.73,9.64,0.23,4.31,85.48,105.77
41,0,0,0,0,0,2020,8,2,0,0,43,0,0,0,3.99,3.25,4.98,4.99,35.85,28.64,25.67,30.44,25.25,1009.48,-25.87,-20.25,91.20,0.76,9.68,0.23,4.52,85.28,106.14
42,0,0,0,0,0,2020,8,2,0,0,44,0,0,0,3.99,3.26,4.99,4.95,35.68,28.10,25.67,30.41,25.23,1009.26,-25.27,-19.80,92.10,0.76,9.68,0.42,4.52,84.84,105.59
43,0,0,0,0,0,2020,8,2,0,0,45,0,0,0,3.99,3.25,4.99,4.98,36.25,28.78,25.67,30.43,25.26,1009.37,-26.17,-20.85,91.05,0.73,9.68,0.34,4.29,85.25,106.33
44,0,0,0,0,0,2020,8,2,0,0,46,0,0,0,3.99,3.26,4.99,4.94,36.77,28.16,25.67,30.43,25.30,1009.40,-25.72,-19.80,91.20,0.76,9.68,0.34,4.52,85.05,106.02
45,0,0,0,0,0,2020,8,2,0,0,47,0,0,0,3.99,3.25,4.99,4.99,36.35,28.84,25.67,30.43,25.32,1009.17,-25.72,-21.15,90.90,0.73,9.68,0.38,4.29,85.15,106.09
46,0,0,0,0,0,2020,8,2,0,0,48,0,0,0,3.98,3.26,4.99,4.99,36.65,27.57,25.70,30.45,25.30,1009.35,-24.52,-20.25,91.80,0.96,9.68,0.31,5.64,84.08,105.24
47,0,0,0,0,0,2020,8,2,0,0,49,0,0,0,4.00,3.25,4.98,4.99,36.68,29.33,25.69,30.50,25.34,1009.26,-25.12,-20.40,91.35,0.80,9.68,0.19,4.74,85.12,105.70
48,0,0,0,0,0,2020,8,2,0,0,50,0,0,0,4.00,3.26,4.98,4.96,36.34,28.61,25.71,30.48,25.34,1009.36,-25.27,-20.70,91.20,0.80,9.64,0.31,4.76,84.90,105.80
49,0,0,0,0,0,2020,8,2,0,0,51,0,0,0,3.99,3.25,4.99,4.99,35.64,29.19,25.71,30.53,25.29,1009.49,-26.02,-20.55,90.90,0.80,9.64,0.34,4.76,84.82,106.26
50,0,0,0,0,0,2020,8,2,0,0,52,0,0,0,3.99,3.26,4.98,4.99,35.93,28.27,25.72,30.54,25.33,1009.29,-26.77,-19.50,90.90,0.73,9.68,0.38,4.29,85.15,106.65
51,0,0,0,0,0,2020,8,2,0,0,53,0,0,0,3.95,3.25,4.98,4.99,36.58,29.13,25.72,30.55,25.35,1009.28,-25.72,-20.25,90.30,0.76,9.64,0.34,4.53,85.03,106.18
52,0,0,0,0,0,2020,8,2,0,0,54,0,0,0,3.99,3.26,4.99,4.99,37.54,28.20,25.70,30.58,25.31,1009.20,-25.57,-20.55,91.95,0.80,9.68,0.65,4.73,83.90,105.73
53,0,0,0,0,0,2020,8,2,0,0,55,0,0,0,3.84,3.25,4.98,4.99,35.99,29.28,25.73,30.59,25.31,1009.34,-25.27,-20.55,90.75,0.76,9.64,0.34,4.53,85.03,105.86
54,0,0,0,0,0,2020,8,2,0,0,56,0,0,0,3.99,3.26,4.98,4.99,36.43,27.84,25.74,30.53,25.34,1009.41,-26.02,-20.85,90.60,0.80,9.68,0.38,4.74,84.75,106.31
55,0,0,0,0,0,2020,8,2,0,0,57,0,0,0,3.84,3.25,4.98,4.99,36.59,28.68,25.75,30.55,25.33,1009.53,-25.57,-20.55,90.75,0.76,9.87,0.19,4.43,85.43,106.06
